[
    {
        "city": "Tokyo", 
        "lat": "35.6897", 
        "lng": "139.6922", 
        "country": "Japan", 
        "iso2": "JP", 
        "admin_name": "T\u014dky\u014d", 
        "capital": "primary", 
        "population": "37977000", 
        "population_proper": "13515271"
    }, 
    {
        "city": "\u014csaka", 
        "lat": "34.6936", 
        "lng": "135.5019", 
        "country": "Japan", 
        "iso2": "JP", 
        "admin_name": "\u014csaka", 
        "capital": "admin", 
        "population": "14977000", 
        "population_proper": "2725006"
    }, 
    {
        "city": "Nagoya", 
        "lat": "35.1167", 
        "lng": "136.9333", 
        "country": "Japan", 
        "iso2": "JP", 
        "admin_name": "Aichi", 
        "capital": "admin", 
        "population": "9113000", 
        "population_proper": "2320361"
    }, 
    {
        "city": "Yokohama", 
        "lat": "35.4333", 
        "lng": "139.6333", 
        "country": "Japan", 
        "iso2": "JP", 
        "admin_name": "Kanagawa", 
        "capital": "admin", 
        "population": "3748781", 
        "population_proper": "3748781"
    }, 
    {
        "city": "Fukuoka", 
        "lat": "33.5903", 
        "lng": "130.4019", 
        "country": "Japan", 
        "iso2": "JP", 
        "admin_name": "Fukuoka", 
        "capital": "admin", 
        "population": "2128000", 
        "population_proper": "1588924"
    }, 
    {
        "city": "Sapporo", 
        "lat": "43.0621", 
        "lng": "141.3544", 
        "country": "Japan", 
        "iso2": "JP", 
        "admin_name": "Hokkaid\u014d", 
        "capital": "admin", 
        "population": "1958756", 
        "population_proper": "1958756"
    }, 
    {
        "city": "Ky\u014dto", 
        "lat": "35.0111", 
        "lng": "135.7669", 
        "country": "Japan", 
        "iso2": "JP", 
        "admin_name": "Ky\u014dto", 
        "capital": "admin", 
        "population": "1805000", 
        "population_proper": "1459640"
    }, 
    {
        "city": "K\u014dbe", 
        "lat": "34.6913", 
        "lng": "135.1830", 
        "country": "Japan", 
        "iso2": "JP", 
        "admin_name": "Hy\u014dgo", 
        "capital": "admin", 
        "population": "1522944", 
        "population_proper": "1522944"
    }, 
    {
        "city": "Kawanakajima", 
        "lat": "35.5300", 
        "lng": "139.7050", 
        "country": "Japan", 
        "iso2": "JP", 
        "admin_name": "Kanagawa", 
        "capital": "", 
        "population": "1437266", 
        "population_proper": "1306785"
    }, 
    {
        "city": "Saitama", 
        "lat": "35.8617", 
        "lng": "139.6453", 
        "country": "Japan", 
        "iso2": "JP", 
        "admin_name": "Saitama", 
        "capital": "admin", 
        "population": "1307931", 
        "population_proper": "1307931"
    }, 
    {
        "city": "Hiroshima", 
        "lat": "34.3853", 
        "lng": "132.4553", 
        "country": "Japan", 
        "iso2": "JP", 
        "admin_name": "Hiroshima", 
        "capital": "admin", 
        "population": "1306589", 
        "population_proper": "1306589"
    }, 
    {
        "city": "Sendai", 
        "lat": "38.2683", 
        "lng": "140.8694", 
        "country": "Japan", 
        "iso2": "JP", 
        "admin_name": "Miyagi", 
        "capital": "admin", 
        "population": "1058070", 
        "population_proper": "1058070"
    }, 
    {
        "city": "Kitaku", 
        "lat": "33.8704", 
        "lng": "130.8200", 
        "country": "Japan", 
        "iso2": "JP", 
        "admin_name": "Fukuoka", 
        "capital": "", 
        "population": "997536", 
        "population_proper": "983037"
    }, 
    {
        "city": "Chiba", 
        "lat": "35.6000", 
        "lng": "140.1000", 
        "country": "Japan", 
        "iso2": "JP", 
        "admin_name": "Chiba", 
        "capital": "admin", 
        "population": "980203", 
        "population_proper": "980203"
    }, 
    {
        "city": "Niigata", 
        "lat": "37.9161", 
        "lng": "139.0364", 
        "country": "Japan", 
        "iso2": "JP", 
        "admin_name": "Niigata", 
        "capital": "admin", 
        "population": "796500", 
        "population_proper": "796500"
    }, 
    {
        "city": "Hamamatsu", 
        "lat": "34.7167", 
        "lng": "137.7333", 
        "country": "Japan", 
        "iso2": "JP", 
        "admin_name": "Shizuoka", 
        "capital": "", 
        "population": "791770", 
        "population_proper": "791770"
    }, 
    {
        "city": "Kumamoto", 
        "lat": "32.8031", 
        "lng": "130.7078", 
        "country": "Japan", 
        "iso2": "JP", 
        "admin_name": "Kumamoto", 
        "capital": "admin", 
        "population": "739393", 
        "population_proper": "739393"
    }, 
    {
        "city": "Sagamihara", 
        "lat": "35.5667", 
        "lng": "139.3667", 
        "country": "Japan", 
        "iso2": "JP", 
        "admin_name": "Kanagawa", 
        "capital": "", 
        "population": "722828", 
        "population_proper": "722828"
    }, 
    {
        "city": "Okayama", 
        "lat": "34.6500", 
        "lng": "133.9167", 
        "country": "Japan", 
        "iso2": "JP", 
        "admin_name": "Okayama", 
        "capital": "admin", 
        "population": "720865", 
        "population_proper": "720865"
    }, 
    {
        "city": "Shizuoka", 
        "lat": "34.9756", 
        "lng": "138.3825", 
        "country": "Japan", 
        "iso2": "JP", 
        "admin_name": "Shizuoka", 
        "capital": "admin", 
        "population": "691185", 
        "population_proper": "691185"
    }, 
    {
        "city": "Honch\u014d", 
        "lat": "35.6947", 
        "lng": "139.9825", 
        "country": "Japan", 
        "iso2": "JP", 
        "admin_name": "Chiba", 
        "capital": "", 
        "population": "639107", 
        "population_proper": "639107"
    }, 
    {
        "city": "Kagoshima", 
        "lat": "31.5800", 
        "lng": "130.5281", 
        "country": "Japan", 
        "iso2": "JP", 
        "admin_name": "Kagoshima", 
        "capital": "admin", 
        "population": "595319", 
        "population_proper": "595319"
    }, 
    {
        "city": "Kawaguchi", 
        "lat": "35.8078", 
        "lng": "139.7242", 
        "country": "Japan", 
        "iso2": "JP", 
        "admin_name": "Saitama", 
        "capital": "", 
        "population": "592373", 
        "population_proper": "592373"
    }, 
    {
        "city": "Hachi\u014dji", 
        "lat": "35.6667", 
        "lng": "139.3167", 
        "country": "Japan", 
        "iso2": "JP", 
        "admin_name": "T\u014dky\u014d", 
        "capital": "", 
        "population": "577560", 
        "population_proper": "577560"
    }, 
    {
        "city": "Utsunomiya", 
        "lat": "36.5500", 
        "lng": "139.8833", 
        "country": "Japan", 
        "iso2": "JP", 
        "admin_name": "Tochigi", 
        "capital": "admin", 
        "population": "519255", 
        "population_proper": "519255"
    }, 
    {
        "city": "Matsuyama", 
        "lat": "33.8333", 
        "lng": "132.7667", 
        "country": "Japan", 
        "iso2": "JP", 
        "admin_name": "Ehime", 
        "capital": "admin", 
        "population": "509139", 
        "population_proper": "509139"
    }, 
    {
        "city": "Ichikawa", 
        "lat": "35.7219", 
        "lng": "139.9311", 
        "country": "Japan", 
        "iso2": "JP", 
        "admin_name": "Chiba", 
        "capital": "", 
        "population": "495592", 
        "population_proper": "495592"
    }, 
    {
        "city": "Higashi-\u014dsaka", 
        "lat": "34.6794", 
        "lng": "135.6008", 
        "country": "Japan", 
        "iso2": "JP", 
        "admin_name": "\u014csaka", 
        "capital": "", 
        "population": "494640", 
        "population_proper": "494640"
    }, 
    {
        "city": "Matsudo", 
        "lat": "35.7878", 
        "lng": "139.9031", 
        "country": "Japan", 
        "iso2": "JP", 
        "admin_name": "Chiba", 
        "capital": "", 
        "population": "492671", 
        "population_proper": "492671"
    }, 
    {
        "city": "Nishinomiya-hama", 
        "lat": "34.7333", 
        "lng": "135.3333", 
        "country": "Japan", 
        "iso2": "JP", 
        "admin_name": "Hy\u014dgo", 
        "capital": "", 
        "population": "487413", 
        "population_proper": "487413"
    }, 
    {
        "city": "\u014cita", 
        "lat": "33.2333", 
        "lng": "131.6067", 
        "country": "Japan", 
        "iso2": "JP", 
        "admin_name": "\u014cita", 
        "capital": "admin", 
        "population": "477701", 
        "population_proper": "477701"
    }, 
    {
        "city": "Kanazawa", 
        "lat": "36.5667", 
        "lng": "136.6500", 
        "country": "Japan", 
        "iso2": "JP", 
        "admin_name": "Ishikawa", 
        "capital": "admin", 
        "population": "463873", 
        "population_proper": "463873"
    }, 
    {
        "city": "Fukuyama", 
        "lat": "34.4858", 
        "lng": "133.3625", 
        "country": "Japan", 
        "iso2": "JP", 
        "admin_name": "Hiroshima", 
        "capital": "", 
        "population": "462203", 
        "population_proper": "462203"
    }, 
    {
        "city": "Machida", 
        "lat": "35.5486", 
        "lng": "139.4467", 
        "country": "Japan", 
        "iso2": "JP", 
        "admin_name": "T\u014dky\u014d", 
        "capital": "", 
        "population": "434407", 
        "population_proper": "434407"
    }, 
    {
        "city": "Kashiwa", 
        "lat": "35.8544", 
        "lng": "139.9689", 
        "country": "Japan", 
        "iso2": "JP", 
        "admin_name": "Chiba", 
        "capital": "", 
        "population": "429070", 
        "population_proper": "429070"
    }, 
    {
        "city": "Toyota", 
        "lat": "35.0833", 
        "lng": "137.1567", 
        "country": "Japan", 
        "iso2": "JP", 
        "admin_name": "Aichi", 
        "capital": "", 
        "population": "426477", 
        "population_proper": "426477"
    }, 
    {
        "city": "Takamatsu", 
        "lat": "34.3500", 
        "lng": "134.0500", 
        "country": "Japan", 
        "iso2": "JP", 
        "admin_name": "Kagawa", 
        "capital": "admin", 
        "population": "418772", 
        "population_proper": "418772"
    }, 
    {
        "city": "Toyama", 
        "lat": "36.7000", 
        "lng": "137.2200", 
        "country": "Japan", 
        "iso2": "JP", 
        "admin_name": "Toyama", 
        "capital": "admin", 
        "population": "415816", 
        "population_proper": "415816"
    }, 
    {
        "city": "Nagasaki", 
        "lat": "32.7833", 
        "lng": "129.8667", 
        "country": "Japan", 
        "iso2": "JP", 
        "admin_name": "Nagasaki", 
        "capital": "admin", 
        "population": "411421", 
        "population_proper": "411421"
    }, 
    {
        "city": "Gifu", 
        "lat": "35.4167", 
        "lng": "136.7667", 
        "country": "Japan", 
        "iso2": "JP", 
        "admin_name": "Gifu", 
        "capital": "admin", 
        "population": "401534", 
        "population_proper": "401534"
    }, 
    {
        "city": "Miyazaki", 
        "lat": "31.9167", 
        "lng": "131.4167", 
        "country": "Japan", 
        "iso2": "JP", 
        "admin_name": "Miyazaki", 
        "capital": "admin", 
        "population": "398307", 
        "population_proper": "398307"
    }, 
    {
        "city": "Okazaki", 
        "lat": "34.9500", 
        "lng": "137.1667", 
        "country": "Japan", 
        "iso2": "JP", 
        "admin_name": "Aichi", 
        "capital": "", 
        "population": "387294", 
        "population_proper": "387294"
    }, 
    {
        "city": "Minamisuita", 
        "lat": "34.7667", 
        "lng": "135.5167", 
        "country": "Japan", 
        "iso2": "JP", 
        "admin_name": "\u014csaka", 
        "capital": "", 
        "population": "381829", 
        "population_proper": "381829"
    }, 
    {
        "city": "Ichinomiya", 
        "lat": "35.3039", 
        "lng": "136.8031", 
        "country": "Japan", 
        "iso2": "JP", 
        "admin_name": "Aichi", 
        "capital": "", 
        "population": "379689", 
        "population_proper": "379689"
    }, 
    {
        "city": "Toyohashi", 
        "lat": "34.7667", 
        "lng": "137.3833", 
        "country": "Japan", 
        "iso2": "JP", 
        "admin_name": "Aichi", 
        "capital": "", 
        "population": "373234", 
        "population_proper": "373234"
    }, 
    {
        "city": "Nagano", 
        "lat": "36.6486", 
        "lng": "138.1928", 
        "country": "Japan", 
        "iso2": "JP", 
        "admin_name": "Nagano", 
        "capital": "admin", 
        "population": "370057", 
        "population_proper": "370057"
    }, 
    {
        "city": "Wakayama", 
        "lat": "34.2333", 
        "lng": "135.1667", 
        "country": "Japan", 
        "iso2": "JP", 
        "admin_name": "Wakayama", 
        "capital": "admin", 
        "population": "355825", 
        "population_proper": "355825"
    }, 
    {
        "city": "Nara", 
        "lat": "34.6833", 
        "lng": "135.7833", 
        "country": "Japan", 
        "iso2": "JP", 
        "admin_name": "Nara", 
        "capital": "admin", 
        "population": "353989", 
        "population_proper": "353989"
    }, 
    {
        "city": "Koshigaya", 
        "lat": "35.8911", 
        "lng": "139.7908", 
        "country": "Japan", 
        "iso2": "JP", 
        "admin_name": "Saitama", 
        "capital": "", 
        "population": "345458", 
        "population_proper": "345458"
    }, 
    {
        "city": "\u014ctsu", 
        "lat": "35.0167", 
        "lng": "135.8500", 
        "country": "Japan", 
        "iso2": "JP", 
        "admin_name": "Shiga", 
        "capital": "admin", 
        "population": "342175", 
        "population_proper": "342175"
    }, 
    {
        "city": "Tokorozawa", 
        "lat": "35.7994", 
        "lng": "139.4689", 
        "country": "Japan", 
        "iso2": "JP", 
        "admin_name": "Saitama", 
        "capital": "", 
        "population": "341409", 
        "population_proper": "341409"
    }, 
    {
        "city": "Tamuramachi-moriyama", 
        "lat": "37.4100", 
        "lng": "140.3800", 
        "country": "Japan", 
        "iso2": "JP", 
        "admin_name": "Fukushima", 
        "capital": "", 
        "population": "340560", 
        "population_proper": "264602"
    }, 
    {
        "city": "Iwaki", 
        "lat": "37.0333", 
        "lng": "140.8833", 
        "country": "Japan", 
        "iso2": "JP", 
        "admin_name": "Fukushima", 
        "capital": "", 
        "population": "340231", 
        "population_proper": "340231"
    }, 
    {
        "city": "Kawagoe", 
        "lat": "35.9177", 
        "lng": "139.4911", 
        "country": "Japan", 
        "iso2": "JP", 
        "admin_name": "Saitama", 
        "capital": "", 
        "population": "337931", 
        "population_proper": "337931"
    }, 
    {
        "city": "Asahikawa", 
        "lat": "43.7706", 
        "lng": "142.3650", 
        "country": "Japan", 
        "iso2": "JP", 
        "admin_name": "Hokkaid\u014d", 
        "capital": "", 
        "population": "334692", 
        "population_proper": "334692"
    }, 
    {
        "city": "Maebashi", 
        "lat": "36.3833", 
        "lng": "139.0667", 
        "country": "Japan", 
        "iso2": "JP", 
        "admin_name": "Gunma", 
        "capital": "admin", 
        "population": "332999", 
        "population_proper": "332999"
    }, 
    {
        "city": "K\u014dchi", 
        "lat": "33.5667", 
        "lng": "133.5333", 
        "country": "Japan", 
        "iso2": "JP", 
        "admin_name": "K\u014dchi", 
        "capital": "admin", 
        "population": "328930", 
        "population_proper": "328930"
    }, 
    {
        "city": "Naha", 
        "lat": "26.2122", 
        "lng": "127.6789", 
        "country": "Japan", 
        "iso2": "JP", 
        "admin_name": "Okinawa", 
        "capital": "admin", 
        "population": "317606", 
        "population_proper": "317606"
    }, 
    {
        "city": "Yokkaichi", 
        "lat": "34.9667", 
        "lng": "136.6167", 
        "country": "Japan", 
        "iso2": "JP", 
        "admin_name": "Mie", 
        "capital": "", 
        "population": "310145", 
        "population_proper": "310145"
    }, 
    {
        "city": "Kasugai", 
        "lat": "35.2500", 
        "lng": "136.9667", 
        "country": "Japan", 
        "iso2": "JP", 
        "admin_name": "Aichi", 
        "capital": "", 
        "population": "306876", 
        "population_proper": "306876"
    }, 
    {
        "city": "Akita", 
        "lat": "39.7197", 
        "lng": "140.1025", 
        "country": "Japan", 
        "iso2": "JP", 
        "admin_name": "Akita", 
        "capital": "admin", 
        "population": "306178", 
        "population_proper": "306178"
    }, 
    {
        "city": "\u014cakashich\u014d", 
        "lat": "34.6431", 
        "lng": "134.9975", 
        "country": "Japan", 
        "iso2": "JP", 
        "admin_name": "Hy\u014dgo", 
        "capital": "", 
        "population": "299094", 
        "population_proper": "299094"
    }, 
    {
        "city": "Morioka", 
        "lat": "39.6833", 
        "lng": "141.1500", 
        "country": "Japan", 
        "iso2": "JP", 
        "admin_name": "Iwate", 
        "capital": "admin", 
        "population": "292554", 
        "population_proper": "292554"
    }, 
    {
        "city": "Fukushima", 
        "lat": "37.7608", 
        "lng": "140.4733", 
        "country": "Japan", 
        "iso2": "JP", 
        "admin_name": "Fukushima", 
        "capital": "admin", 
        "population": "286742", 
        "population_proper": "286742"
    }, 
    {
        "city": "Aomori", 
        "lat": "40.8222", 
        "lng": "140.7475", 
        "country": "Japan", 
        "iso2": "JP", 
        "admin_name": "Aomori", 
        "capital": "admin", 
        "population": "276567", 
        "population_proper": "276567"
    }, 
    {
        "city": "Tsu", 
        "lat": "34.7186", 
        "lng": "136.5056", 
        "country": "Japan", 
        "iso2": "JP", 
        "admin_name": "Mie", 
        "capital": "admin", 
        "population": "275371", 
        "population_proper": "275371"
    }, 
    {
        "city": "Ichihara", 
        "lat": "35.4981", 
        "lng": "140.1156", 
        "country": "Japan", 
        "iso2": "JP", 
        "admin_name": "Chiba", 
        "capital": "", 
        "population": "270478", 
        "population_proper": "270478"
    }, 
    {
        "city": "Mito", 
        "lat": "36.3667", 
        "lng": "140.4667", 
        "country": "Japan", 
        "iso2": "JP", 
        "admin_name": "Ibaraki", 
        "capital": "admin", 
        "population": "269661", 
        "population_proper": "269661"
    }, 
    {
        "city": "Yao", 
        "lat": "34.6269", 
        "lng": "135.6008", 
        "country": "Japan", 
        "iso2": "JP", 
        "admin_name": "Nara", 
        "capital": "", 
        "population": "266386", 
        "population_proper": "266386"
    }, 
    {
        "city": "Fuch\u016b", 
        "lat": "35.6689", 
        "lng": "139.4778", 
        "country": "Japan", 
        "iso2": "JP", 
        "admin_name": "T\u014dky\u014d", 
        "capital": "", 
        "population": "263932", 
        "population_proper": "263932"
    }, 
    {
        "city": "Fukui", 
        "lat": "36.0641", 
        "lng": "136.2196", 
        "country": "Japan", 
        "iso2": "JP", 
        "admin_name": "Fukui", 
        "capital": "admin", 
        "population": "262530", 
        "population_proper": "262530"
    }, 
    {
        "city": "Kakogawach\u014d-honmachi", 
        "lat": "34.7569", 
        "lng": "134.8414", 
        "country": "Japan", 
        "iso2": "JP", 
        "admin_name": "Hy\u014dgo", 
        "capital": "", 
        "population": "262308", 
        "population_proper": "262308"
    }, 
    {
        "city": "Hiratsuka", 
        "lat": "35.3231", 
        "lng": "139.3422", 
        "country": "Japan", 
        "iso2": "JP", 
        "admin_name": "Kanagawa", 
        "capital": "", 
        "population": "257729", 
        "population_proper": "257729"
    }, 
    {
        "city": "Shinozaki", 
        "lat": "33.9500", 
        "lng": "130.9333", 
        "country": "Japan", 
        "iso2": "JP", 
        "admin_name": "Fukuoka", 
        "capital": "", 
        "population": "257038", 
        "population_proper": "257038"
    }, 
    {
        "city": "Hakodate", 
        "lat": "41.7733", 
        "lng": "140.7261", 
        "country": "Japan", 
        "iso2": "JP", 
        "admin_name": "Hokkaid\u014d", 
        "capital": "", 
        "population": "256222", 
        "population_proper": "256222"
    }, 
    {
        "city": "Tokushima", 
        "lat": "34.0667", 
        "lng": "134.5500", 
        "country": "Japan", 
        "iso2": "JP", 
        "admin_name": "Tokushima", 
        "capital": "admin", 
        "population": "255167", 
        "population_proper": "255167"
    }, 
    {
        "city": "S\u014dka", 
        "lat": "35.8256", 
        "lng": "139.8056", 
        "country": "Japan", 
        "iso2": "JP", 
        "admin_name": "Saitama", 
        "capital": "", 
        "population": "250939", 
        "population_proper": "250939"
    }, 
    {
        "city": "Yamagata", 
        "lat": "38.2500", 
        "lng": "140.3333", 
        "country": "Japan", 
        "iso2": "JP", 
        "admin_name": "Yamagata", 
        "capital": "admin", 
        "population": "249327", 
        "population_proper": "249327"
    }, 
    {
        "city": "Fuji", 
        "lat": "35.1614", 
        "lng": "138.6764", 
        "country": "Japan", 
        "iso2": "JP", 
        "admin_name": "Shizuoka", 
        "capital": "", 
        "population": "245078", 
        "population_proper": "245078"
    }, 
    {
        "city": "Chigasaki", 
        "lat": "35.3339", 
        "lng": "139.4047", 
        "country": "Japan", 
        "iso2": "JP", 
        "admin_name": "Kanagawa", 
        "capital": "", 
        "population": "241887", 
        "population_proper": "241887"
    }, 
    {
        "city": "Tsukuba-kenky\u016bgakuen-toshi", 
        "lat": "36.0333", 
        "lng": "140.0667", 
        "country": "Japan", 
        "iso2": "JP", 
        "admin_name": "Ibaraki", 
        "capital": "", 
        "population": "240987", 
        "population_proper": "240987"
    }, 
    {
        "city": "Ch\u014dfugaoka", 
        "lat": "35.6506", 
        "lng": "139.5408", 
        "country": "Japan", 
        "iso2": "JP", 
        "admin_name": "T\u014dky\u014d", 
        "capital": "", 
        "population": "239650", 
        "population_proper": "239650"
    }, 
    {
        "city": "Hachimanch\u014d", 
        "lat": "40.5100", 
        "lng": "141.5400", 
        "country": "Japan", 
        "iso2": "JP", 
        "admin_name": "Aomori", 
        "capital": "", 
        "population": "239046", 
        "population_proper": "212104"
    }, 
    {
        "city": "Yato", 
        "lat": "35.4693", 
        "lng": "139.4616", 
        "country": "Japan", 
        "iso2": "JP", 
        "admin_name": "Kanagawa", 
        "capital": "", 
        "population": "237445", 
        "population_proper": "237445"
    }, 
    {
        "city": "Sato", 
        "lat": "33.1631", 
        "lng": "129.7177", 
        "country": "Japan", 
        "iso2": "JP", 
        "admin_name": "Nagasaki", 
        "capital": "", 
        "population": "237444", 
        "population_proper": "211251"
    }, 
    {
        "city": "Saga", 
        "lat": "33.2667", 
        "lng": "130.3000", 
        "country": "Japan", 
        "iso2": "JP", 
        "admin_name": "Saga", 
        "capital": "admin", 
        "population": "233514", 
        "population_proper": "233514"
    }, 
    {
        "city": "Neya", 
        "lat": "34.7661", 
        "lng": "135.6281", 
        "country": "Japan", 
        "iso2": "JP", 
        "admin_name": "\u014csaka", 
        "capital": "", 
        "population": "229974", 
        "population_proper": "229974"
    }, 
    {
        "city": "Kasukabe", 
        "lat": "35.9753", 
        "lng": "139.7525", 
        "country": "Japan", 
        "iso2": "JP", 
        "admin_name": "Saitama", 
        "capital": "", 
        "population": "229932", 
        "population_proper": "229932"
    }, 
    {
        "city": "Ageoshimo", 
        "lat": "35.9775", 
        "lng": "139.5933", 
        "country": "Japan", 
        "iso2": "JP", 
        "admin_name": "Saitama", 
        "capital": "", 
        "population": "225907", 
        "population_proper": "225907"
    }, 
    {
        "city": "Sakurazuka", 
        "lat": "34.8000", 
        "lng": "135.3603", 
        "country": "Japan", 
        "iso2": "JP", 
        "admin_name": "\u014csaka", 
        "capital": "", 
        "population": "225008", 
        "population_proper": "225008"
    }, 
    {
        "city": "Minami\u014dzuma", 
        "lat": "36.2404", 
        "lng": "137.9700", 
        "country": "Japan", 
        "iso2": "JP", 
        "admin_name": "Nagano", 
        "capital": "", 
        "population": "224926", 
        "population_proper": "210667"
    }, 
    {
        "city": "Atsugich\u014d", 
        "lat": "35.4333", 
        "lng": "139.3667", 
        "country": "Japan", 
        "iso2": "JP", 
        "admin_name": "Kanagawa", 
        "capital": "", 
        "population": "224677", 
        "population_proper": "224677"
    }, 
    {
        "city": "Kure", 
        "lat": "34.2492", 
        "lng": "132.5658", 
        "country": "Japan", 
        "iso2": "JP", 
        "admin_name": "Hiroshima", 
        "capital": "", 
        "population": "218351", 
        "population_proper": "218351"
    }, 
    {
        "city": "Matsue", 
        "lat": "35.4681", 
        "lng": "133.0486", 
        "country": "Japan", 
        "iso2": "JP", 
        "admin_name": "Shimane", 
        "capital": "admin", 
        "population": "203565", 
        "population_proper": "203565"
    }, 
    {
        "city": "Ashino", 
        "lat": "42.9750", 
        "lng": "144.3747", 
        "country": "Japan", 
        "iso2": "JP", 
        "admin_name": "Hokkaid\u014d", 
        "capital": "", 
        "population": "198566", 
        "population_proper": "183612"
    }, 
    {
        "city": "Itami", 
        "lat": "34.7867", 
        "lng": "135.4056", 
        "country": "Japan", 
        "iso2": "JP", 
        "admin_name": "Hy\u014dgo", 
        "capital": "", 
        "population": "198395", 
        "population_proper": "198395"
    }, 
    {
        "city": "Yachiyo", 
        "lat": "35.7225", 
        "lng": "140.0997", 
        "country": "Japan", 
        "iso2": "JP", 
        "admin_name": "Chiba", 
        "capital": "", 
        "population": "197792", 
        "population_proper": "197792"
    }, 
    {
        "city": "Higashi-Hiroshima", 
        "lat": "34.4167", 
        "lng": "132.7333", 
        "country": "Japan", 
        "iso2": "JP", 
        "admin_name": "Hiroshima", 
        "capital": "", 
        "population": "195805", 
        "population_proper": "195805"
    }, 
    {
        "city": "Suzuka", 
        "lat": "34.8822", 
        "lng": "136.5842", 
        "country": "Japan", 
        "iso2": "JP", 
        "admin_name": "Mie", 
        "capital": "", 
        "population": "195762", 
        "population_proper": "195762"
    }, 
    {
        "city": "Naka", 
        "lat": "37.4504", 
        "lng": "138.8600", 
        "country": "Japan", 
        "iso2": "JP", 
        "admin_name": "Niigata", 
        "capital": "", 
        "population": "195318", 
        "population_proper": "179802"
    }, 
    {
        "city": "Yamaguchi", 
        "lat": "34.1781", 
        "lng": "131.4739", 
        "country": "Japan", 
        "iso2": "JP", 
        "admin_name": "Yamaguchi", 
        "capital": "admin", 
        "population": "194990", 
        "population_proper": "194990"
    }, 
    {
        "city": "Kumagaya", 
        "lat": "36.1472", 
        "lng": "139.3886", 
        "country": "Japan", 
        "iso2": "JP", 
        "admin_name": "Saitama", 
        "capital": "", 
        "population": "194959", 
        "population_proper": "194959"
    }, 
    {
        "city": "Nagareyama", 
        "lat": "35.8561", 
        "lng": "139.9025", 
        "country": "Japan", 
        "iso2": "JP", 
        "admin_name": "Saitama", 
        "capital": "", 
        "population": "193976", 
        "population_proper": "193976"
    }, 
    {
        "city": "Kamirenjaku", 
        "lat": "35.6833", 
        "lng": "139.5594", 
        "country": "Japan", 
        "iso2": "JP", 
        "admin_name": "T\u014dky\u014d", 
        "capital": "", 
        "population": "192489", 
        "population_proper": "192489"
    }, 
    {
        "city": "Kawara", 
        "lat": "35.2647", 
        "lng": "139.1522", 
        "country": "Japan", 
        "iso2": "JP", 
        "admin_name": "Kanagawa", 
        "capital": "", 
        "population": "190109", 
        "population_proper": "190109"
    }, 
    {
        "city": "Hino", 
        "lat": "35.6714", 
        "lng": "139.3950", 
        "country": "Japan", 
        "iso2": "JP", 
        "admin_name": "T\u014dky\u014d", 
        "capital": "", 
        "population": "189945", 
        "population_proper": "189945"
    }, 
    {
        "city": "J\u014detsu", 
        "lat": "37.1500", 
        "lng": "138.2333", 
        "country": "Japan", 
        "iso2": "JP", 
        "admin_name": "Niigata", 
        "capital": "", 
        "population": "189881", 
        "population_proper": "189881"
    }, 
    {
        "city": "Tottori", 
        "lat": "35.5011", 
        "lng": "134.2350", 
        "country": "Japan", 
        "iso2": "JP", 
        "admin_name": "Tottori", 
        "capital": "", 
        "population": "188740", 
        "population_proper": "188740"
    }, 
    {
        "city": "K\u014dfu", 
        "lat": "35.6667", 
        "lng": "138.5667", 
        "country": "Japan", 
        "iso2": "JP", 
        "admin_name": "Yamanashi", 
        "capital": "admin", 
        "population": "188406", 
        "population_proper": "188406"
    }, 
    {
        "city": "Anj\u014dmachi", 
        "lat": "34.9667", 
        "lng": "137.0833", 
        "country": "Japan", 
        "iso2": "JP", 
        "admin_name": "Aichi", 
        "capital": "", 
        "population": "188181", 
        "population_proper": "188181"
    }, 
    {
        "city": "Izuo", 
        "lat": "34.4836", 
        "lng": "135.4236", 
        "country": "Japan", 
        "iso2": "JP", 
        "admin_name": "\u014csaka", 
        "capital": "", 
        "population": "185208", 
        "population_proper": "185208"
    }, 
    {
        "city": "Toyokawa", 
        "lat": "34.8268", 
        "lng": "137.3759", 
        "country": "Japan", 
        "iso2": "JP", 
        "admin_name": "Aichi", 
        "capital": "", 
        "population": "183823", 
        "population_proper": "183823"
    }, 
    {
        "city": "Uji", 
        "lat": "34.8808", 
        "lng": "135.7794", 
        "country": "Japan", 
        "iso2": "JP", 
        "admin_name": "Ky\u014dto", 
        "capital": "", 
        "population": "180975", 
        "population_proper": "180975"
    }, 
    {
        "city": "Tachikawa", 
        "lat": "35.6939", 
        "lng": "139.4194", 
        "country": "Japan", 
        "iso2": "JP", 
        "admin_name": "T\u014dky\u014d", 
        "capital": "", 
        "population": "180880", 
        "population_proper": "180880"
    }, 
    {
        "city": "Hitachi", 
        "lat": "36.6000", 
        "lng": "140.6500", 
        "country": "Japan", 
        "iso2": "JP", 
        "admin_name": "Ibaraki", 
        "capital": "", 
        "population": "176069", 
        "population_proper": "176069"
    }, 
    {
        "city": "\u014cbiraki", 
        "lat": "40.5700", 
        "lng": "140.4700", 
        "country": "Japan", 
        "iso2": "JP", 
        "admin_name": "Aomori", 
        "capital": "", 
        "population": "174972", 
        "population_proper": "168429"
    }, 
    {
        "city": "Takaoka", 
        "lat": "42.6504", 
        "lng": "141.5500", 
        "country": "Japan", 
        "iso2": "JP", 
        "admin_name": "Hokkaid\u014d", 
        "capital": "", 
        "population": "174806", 
        "population_proper": "147905"
    }, 
    {
        "city": "Beppuch\u014d", 
        "lat": "42.9304", 
        "lng": "143.1700", 
        "country": "Japan", 
        "iso2": "JP", 
        "admin_name": "Hokkaid\u014d", 
        "capital": "", 
        "population": "173890", 
        "population_proper": "165338"
    }, 
    {
        "city": "Narashino", 
        "lat": "35.6808", 
        "lng": "140.0267", 
        "country": "Japan", 
        "iso2": "JP", 
        "admin_name": "Chiba", 
        "capital": "", 
        "population": "173716", 
        "population_proper": "173716"
    }, 
    {
        "city": "Izumo", 
        "lat": "35.3681", 
        "lng": "132.7550", 
        "country": "Japan", 
        "iso2": "JP", 
        "admin_name": "Shimane", 
        "capital": "", 
        "population": "172784", 
        "population_proper": "172784"
    }, 
    {
        "city": "Kamakurayama", 
        "lat": "35.3197", 
        "lng": "139.5525", 
        "country": "Japan", 
        "iso2": "JP", 
        "admin_name": "Kanagawa", 
        "capital": "", 
        "population": "172262", 
        "population_proper": "172262"
    }, 
    {
        "city": "Sakura", 
        "lat": "35.7239", 
        "lng": "140.2239", 
        "country": "Japan", 
        "iso2": "JP", 
        "admin_name": "Chiba", 
        "capital": "", 
        "population": "170906", 
        "population_proper": "170906"
    }, 
    {
        "city": "Nishio", 
        "lat": "34.8667", 
        "lng": "137.0667", 
        "country": "Japan", 
        "iso2": "JP", 
        "admin_name": "Aichi", 
        "capital": "", 
        "population": "169926", 
        "population_proper": "169926"
    }, 
    {
        "city": "Takaoka", 
        "lat": "36.7500", 
        "lng": "137.0333", 
        "country": "Japan", 
        "iso2": "JP", 
        "admin_name": "Toyama", 
        "capital": "", 
        "population": "167800", 
        "population_proper": "167800"
    }, 
    {
        "city": "Oyama", 
        "lat": "36.3147", 
        "lng": "139.8003", 
        "country": "Japan", 
        "iso2": "JP", 
        "admin_name": "Tochigi", 
        "capital": "", 
        "population": "167633", 
        "population_proper": "167633"
    }, 
    {
        "city": "Iwata", 
        "lat": "34.7178", 
        "lng": "137.8514", 
        "country": "Japan", 
        "iso2": "JP", 
        "admin_name": "Shizuoka", 
        "capital": "", 
        "population": "166393", 
        "population_proper": "166393"
    }, 
    {
        "city": "Ube", 
        "lat": "33.9517", 
        "lng": "131.2467", 
        "country": "Japan", 
        "iso2": "JP", 
        "admin_name": "Yamaguchi", 
        "capital": "", 
        "population": "164325", 
        "population_proper": "164325"
    }, 
    {
        "city": "Niiza", 
        "lat": "35.7933", 
        "lng": "139.5653", 
        "country": "Japan", 
        "iso2": "JP", 
        "admin_name": "Saitama", 
        "capital": "", 
        "population": "164083", 
        "population_proper": "164083"
    }, 
    {
        "city": "Matsuzaka", 
        "lat": "34.5781", 
        "lng": "136.5275", 
        "country": "Japan", 
        "iso2": "JP", 
        "admin_name": "Mie", 
        "capital": "", 
        "population": "160080", 
        "population_proper": "160080"
    }, 
    {
        "city": "\u014cgaki", 
        "lat": "35.3594", 
        "lng": "136.6128", 
        "country": "Japan", 
        "iso2": "JP", 
        "admin_name": "Gifu", 
        "capital": "", 
        "population": "158911", 
        "population_proper": "158911"
    }, 
    {
        "city": "Tochigi", 
        "lat": "36.3824", 
        "lng": "139.7341", 
        "country": "Japan", 
        "iso2": "JP", 
        "admin_name": "Tochigi", 
        "capital": "", 
        "population": "155714", 
        "population_proper": "155714"
    }, 
    {
        "city": "Hitachi-Naka", 
        "lat": "36.3964", 
        "lng": "140.5344", 
        "country": "Japan", 
        "iso2": "JP", 
        "admin_name": "Ibaraki", 
        "capital": "", 
        "population": "155680", 
        "population_proper": "155680"
    }, 
    {
        "city": "Ueda", 
        "lat": "36.4019", 
        "lng": "138.2492", 
        "country": "Japan", 
        "iso2": "JP", 
        "admin_name": "Nagano", 
        "capital": "", 
        "population": "154201", 
        "population_proper": "154201"
    }, 
    {
        "city": "Daiwanishi", 
        "lat": "34.8300", 
        "lng": "135.4172", 
        "country": "Japan", 
        "iso2": "JP", 
        "admin_name": "Hy\u014dgo", 
        "capital": "", 
        "population": "153597", 
        "population_proper": "153597"
    }, 
    {
        "city": "Kariya", 
        "lat": "34.9833", 
        "lng": "137.0000", 
        "country": "Japan", 
        "iso2": "JP", 
        "admin_name": "Aichi", 
        "capital": "", 
        "population": "153190", 
        "population_proper": "153190"
    }, 
    {
        "city": "Noda", 
        "lat": "35.9550", 
        "lng": "139.8747", 
        "country": "Japan", 
        "iso2": "JP", 
        "admin_name": "Chiba", 
        "capital": "", 
        "population": "152652", 
        "population_proper": "152652"
    }, 
    {
        "city": "Imabari", 
        "lat": "34.0661", 
        "lng": "132.9978", 
        "country": "Japan", 
        "iso2": "JP", 
        "admin_name": "Ehime", 
        "capital": "", 
        "population": "151956", 
        "population_proper": "151956"
    }, 
    {
        "city": "Kukich\u016b\u014d", 
        "lat": "36.0622", 
        "lng": "139.6669", 
        "country": "Japan", 
        "iso2": "JP", 
        "admin_name": "Saitama", 
        "capital": "", 
        "population": "151106", 
        "population_proper": "151106"
    }, 
    {
        "city": "Higashi-murayama", 
        "lat": "35.7547", 
        "lng": "139.4686", 
        "country": "Japan", 
        "iso2": "JP", 
        "admin_name": "T\u014dky\u014d", 
        "capital": "", 
        "population": "150186", 
        "population_proper": "150186"
    }, 
    {
        "city": "Sayama", 
        "lat": "35.8531", 
        "lng": "139.4122", 
        "country": "Japan", 
        "iso2": "JP", 
        "admin_name": "Saitama", 
        "capital": "", 
        "population": "149423", 
        "population_proper": "149423"
    }, 
    {
        "city": "Komaki", 
        "lat": "35.2833", 
        "lng": "136.9167", 
        "country": "Japan", 
        "iso2": "JP", 
        "admin_name": "Aichi", 
        "capital": "", 
        "population": "148709", 
        "population_proper": "148709"
    }, 
    {
        "city": "Tama", 
        "lat": "35.6333", 
        "lng": "139.4500", 
        "country": "Japan", 
        "iso2": "JP", 
        "admin_name": "T\u014dky\u014d", 
        "capital": "", 
        "population": "147832", 
        "population_proper": "147832"
    }, 
    {
        "city": "Yonago", 
        "lat": "35.4281", 
        "lng": "133.3311", 
        "country": "Japan", 
        "iso2": "JP", 
        "admin_name": "Tottori", 
        "capital": "", 
        "population": "147667", 
        "population_proper": "147667"
    }, 
    {
        "city": "Iruma", 
        "lat": "35.8358", 
        "lng": "139.3911", 
        "country": "Japan", 
        "iso2": "JP", 
        "admin_name": "Saitama", 
        "capital": "", 
        "population": "146802", 
        "population_proper": "146802"
    }, 
    {
        "city": "Kakamigahara", 
        "lat": "35.3989", 
        "lng": "136.8486", 
        "country": "Japan", 
        "iso2": "JP", 
        "admin_name": "Gifu", 
        "capital": "", 
        "population": "144335", 
        "population_proper": "144335"
    }, 
    {
        "city": "Fukayach\u014d", 
        "lat": "36.2000", 
        "lng": "139.2833", 
        "country": "Japan", 
        "iso2": "JP", 
        "admin_name": "Saitama", 
        "capital": "", 
        "population": "141966", 
        "population_proper": "141966"
    }, 
    {
        "city": "Kusatsu", 
        "lat": "35.0167", 
        "lng": "135.9667", 
        "country": "Japan", 
        "iso2": "JP", 
        "admin_name": "Shiga", 
        "capital": "", 
        "population": "141928", 
        "population_proper": "141928"
    }, 
    {
        "city": "Shimotoda", 
        "lat": "35.8175", 
        "lng": "139.6778", 
        "country": "Japan", 
        "iso2": "JP", 
        "admin_name": "Saitama", 
        "capital": "", 
        "population": "141724", 
        "population_proper": "141724"
    }, 
    {
        "city": "Misato", 
        "lat": "35.8303", 
        "lng": "139.8725", 
        "country": "Japan", 
        "iso2": "JP", 
        "admin_name": "Saitama", 
        "capital": "", 
        "population": "141514", 
        "population_proper": "141514"
    }, 
    {
        "city": "Ishizaki", 
        "lat": "38.4281", 
        "lng": "141.3061", 
        "country": "Japan", 
        "iso2": "JP", 
        "admin_name": "Miyagi", 
        "capital": "", 
        "population": "141293", 
        "population_proper": "141293"
    }, 
    {
        "city": "Kuwana", 
        "lat": "35.0622", 
        "lng": "136.6839", 
        "country": "Japan", 
        "iso2": "JP", 
        "admin_name": "Mie", 
        "capital": "", 
        "population": "139587", 
        "population_proper": "139587"
    }, 
    {
        "city": "Koga", 
        "lat": "36.1833", 
        "lng": "139.7000", 
        "country": "Japan", 
        "iso2": "JP", 
        "admin_name": "Ibaraki", 
        "capital": "", 
        "population": "139274", 
        "population_proper": "139274"
    }, 
    {
        "city": "Tsuchiura", 
        "lat": "36.0667", 
        "lng": "140.2000", 
        "country": "Japan", 
        "iso2": "JP", 
        "admin_name": "Ibaraki", 
        "capital": "", 
        "population": "138517", 
        "population_proper": "138517"
    }, 
    {
        "city": "Yaizu", 
        "lat": "34.8667", 
        "lng": "138.3167", 
        "country": "Japan", 
        "iso2": "JP", 
        "admin_name": "Shizuoka", 
        "capital": "", 
        "population": "136807", 
        "population_proper": "136807"
    }, 
    {
        "city": "Kisarazu", 
        "lat": "35.3761", 
        "lng": "139.9169", 
        "country": "Japan", 
        "iso2": "JP", 
        "admin_name": "Chiba", 
        "capital": "", 
        "population": "135765", 
        "population_proper": "135765"
    }, 
    {
        "city": "Inazawa", 
        "lat": "35.2500", 
        "lng": "136.7833", 
        "country": "Japan", 
        "iso2": "JP", 
        "admin_name": "Aichi", 
        "capital": "", 
        "population": "135676", 
        "population_proper": "135676"
    }, 
    {
        "city": "Isahaya", 
        "lat": "32.8442", 
        "lng": "130.0536", 
        "country": "Japan", 
        "iso2": "JP", 
        "admin_name": "Nagasaki", 
        "capital": "", 
        "population": "134503", 
        "population_proper": "134503"
    }, 
    {
        "city": "\u014cme", 
        "lat": "35.7883", 
        "lng": "139.2750", 
        "country": "Japan", 
        "iso2": "JP", 
        "admin_name": "T\u014dky\u014d", 
        "capital": "", 
        "population": "133824", 
        "population_proper": "133824"
    }, 
    {
        "city": "Onomichi", 
        "lat": "34.4089", 
        "lng": "133.2050", 
        "country": "Japan", 
        "iso2": "JP", 
        "admin_name": "Hiroshima", 
        "capital": "", 
        "population": "132675", 
        "population_proper": "132675"
    }, 
    {
        "city": "Narita", 
        "lat": "35.7833", 
        "lng": "140.3167", 
        "country": "Japan", 
        "iso2": "JP", 
        "admin_name": "Chiba", 
        "capital": "", 
        "population": "132293", 
        "population_proper": "132293"
    }, 
    {
        "city": "Abiko", 
        "lat": "35.8642", 
        "lng": "140.0282", 
        "country": "Japan", 
        "iso2": "JP", 
        "admin_name": "Chiba", 
        "capital": "", 
        "population": "131026", 
        "population_proper": "131026"
    }, 
    {
        "city": "Zama", 
        "lat": "35.4886", 
        "lng": "139.4075", 
        "country": "Japan", 
        "iso2": "JP", 
        "admin_name": "Kanagawa", 
        "capital": "", 
        "population": "130608", 
        "population_proper": "130608"
    }, 
    {
        "city": "Iwakuni", 
        "lat": "34.1669", 
        "lng": "132.2197", 
        "country": "Japan", 
        "iso2": "JP", 
        "admin_name": "Yamaguchi", 
        "capital": "", 
        "population": "130372", 
        "population_proper": "130372"
    }, 
    {
        "city": "\u014cmiyach\u014d", 
        "lat": "35.2222", 
        "lng": "138.6214", 
        "country": "Japan", 
        "iso2": "JP", 
        "admin_name": "Shizuoka", 
        "capital": "", 
        "population": "128501", 
        "population_proper": "128501"
    }, 
    {
        "city": "Kokubunji", 
        "lat": "35.7108", 
        "lng": "139.4622", 
        "country": "Japan", 
        "iso2": "JP", 
        "admin_name": "T\u014dky\u014d", 
        "capital": "", 
        "population": "127790", 
        "population_proper": "127790"
    }, 
    {
        "city": "Seto", 
        "lat": "35.2167", 
        "lng": "137.0833", 
        "country": "Japan", 
        "iso2": "JP", 
        "admin_name": "Aichi", 
        "capital": "", 
        "population": "127653", 
        "population_proper": "127653"
    }, 
    {
        "city": "Iizuka", 
        "lat": "33.6458", 
        "lng": "130.6914", 
        "country": "Japan", 
        "iso2": "JP", 
        "admin_name": "Fukuoka", 
        "capital": "", 
        "population": "126715", 
        "population_proper": "126715"
    }, 
    {
        "city": "Ise", 
        "lat": "34.4833", 
        "lng": "136.7167", 
        "country": "Japan", 
        "iso2": "JP", 
        "admin_name": "Mie", 
        "capital": "", 
        "population": "123783", 
        "population_proper": "123783"
    }, 
    {
        "city": "Honmachi", 
        "lat": "32.5178", 
        "lng": "130.6181", 
        "country": "Japan", 
        "iso2": "JP", 
        "admin_name": "Kumamoto", 
        "capital": "", 
        "population": "123758", 
        "population_proper": "123758"
    }, 
    {
        "city": "Tsuruoka", 
        "lat": "38.7217", 
        "lng": "139.8217", 
        "country": "Japan", 
        "iso2": "JP", 
        "admin_name": "Yamagata", 
        "capital": "", 
        "population": "123437", 
        "population_proper": "123437"
    }, 
    {
        "city": "Kashiwara", 
        "lat": "34.5094", 
        "lng": "135.7925", 
        "country": "Japan", 
        "iso2": "JP", 
        "admin_name": "Nara", 
        "capital": "", 
        "population": "122003", 
        "population_proper": "122003"
    }, 
    {
        "city": "Yonashiro-teruma", 
        "lat": "26.3792", 
        "lng": "127.8575", 
        "country": "Japan", 
        "iso2": "JP", 
        "admin_name": "Okinawa", 
        "capital": "", 
        "population": "121294", 
        "population_proper": "121294"
    }, 
    {
        "city": "Dait\u014dch\u014d", 
        "lat": "34.7119", 
        "lng": "135.6233", 
        "country": "Japan", 
        "iso2": "JP", 
        "admin_name": "\u014csaka", 
        "capital": "", 
        "population": "119986", 
        "population_proper": "119986"
    }, 
    {
        "city": "Kadoma", 
        "lat": "34.7333", 
        "lng": "135.5833", 
        "country": "Japan", 
        "iso2": "JP", 
        "admin_name": "\u014csaka", 
        "capital": "", 
        "population": "119692", 
        "population_proper": "119692"
    }, 
    {
        "city": "Ebetsu", 
        "lat": "43.1039", 
        "lng": "141.5361", 
        "country": "Japan", 
        "iso2": "JP", 
        "admin_name": "Hokkaid\u014d", 
        "capital": "", 
        "population": "119509", 
        "population_proper": "119509"
    }, 
    {
        "city": "Nobeoka", 
        "lat": "32.5822", 
        "lng": "131.6650", 
        "country": "Japan", 
        "iso2": "JP", 
        "admin_name": "Miyazaki", 
        "capital": "", 
        "population": "119309", 
        "population_proper": "119309"
    }, 
    {
        "city": "Beppu", 
        "lat": "33.2847", 
        "lng": "131.4911", 
        "country": "Japan", 
        "iso2": "JP", 
        "admin_name": "\u014cita", 
        "capital": "", 
        "population": "118499", 
        "population_proper": "118499"
    }, 
    {
        "city": "Handa", 
        "lat": "34.8992", 
        "lng": "136.9267", 
        "country": "Japan", 
        "iso2": "JP", 
        "admin_name": "Aichi", 
        "capital": "", 
        "population": "118145", 
        "population_proper": "118145"
    }, 
    {
        "city": "K\u014dnosu", 
        "lat": "36.0658", 
        "lng": "139.5222", 
        "country": "Japan", 
        "iso2": "JP", 
        "admin_name": "Saitama", 
        "capital": "", 
        "population": "117373", 
        "population_proper": "117373"
    }, 
    {
        "city": "K\u014dench\u014d", 
        "lat": "43.8081", 
        "lng": "143.8942", 
        "country": "Japan", 
        "iso2": "JP", 
        "admin_name": "Hokkaid\u014d", 
        "capital": "", 
        "population": "116848", 
        "population_proper": "116848"
    }, 
    {
        "city": "Ikoma", 
        "lat": "34.6919", 
        "lng": "135.7006", 
        "country": "Japan", 
        "iso2": "JP", 
        "admin_name": "Nara", 
        "capital": "", 
        "population": "116816", 
        "population_proper": "116816"
    }, 
    {
        "city": "Honch\u014d", 
        "lat": "35.7581", 
        "lng": "139.5297", 
        "country": "Japan", 
        "iso2": "JP", 
        "admin_name": "T\u014dky\u014d", 
        "capital": "", 
        "population": "116482", 
        "population_proper": "116482"
    }, 
    {
        "city": "Niihama", 
        "lat": "33.9603", 
        "lng": "133.2834", 
        "country": "Japan", 
        "iso2": "JP", 
        "admin_name": "Ehime", 
        "capital": "", 
        "population": "116392", 
        "population_proper": "116392"
    }, 
    {
        "city": "Nasushiobara", 
        "lat": "36.9617", 
        "lng": "140.0461", 
        "country": "Japan", 
        "iso2": "JP", 
        "admin_name": "Tochigi", 
        "capital": "", 
        "population": "116043", 
        "population_proper": "116043"
    }, 
    {
        "city": "Sano", 
        "lat": "36.3144", 
        "lng": "139.5783", 
        "country": "Japan", 
        "iso2": "JP", 
        "admin_name": "Tochigi", 
        "capital": "", 
        "population": "115784", 
        "population_proper": "115784"
    }, 
    {
        "city": "Nagahama", 
        "lat": "35.3833", 
        "lng": "136.2833", 
        "country": "Japan", 
        "iso2": "JP", 
        "admin_name": "Shiga", 
        "capital": "", 
        "population": "115069", 
        "population_proper": "115069"
    }, 
    {
        "city": "Hatsukaichi", 
        "lat": "34.3486", 
        "lng": "132.3317", 
        "country": "Japan", 
        "iso2": "JP", 
        "admin_name": "Hiroshima", 
        "capital": "", 
        "population": "114975", 
        "population_proper": "114975"
    }, 
    {
        "city": "Otaru", 
        "lat": "43.1833", 
        "lng": "141.0000", 
        "country": "Japan", 
        "iso2": "JP", 
        "admin_name": "Hokkaid\u014d", 
        "capital": "", 
        "population": "114947", 
        "population_proper": "114947"
    }, 
    {
        "city": "H\u014dfu", 
        "lat": "34.0500", 
        "lng": "131.5667", 
        "country": "Japan", 
        "iso2": "JP", 
        "admin_name": "Yamaguchi", 
        "capital": "", 
        "population": "114256", 
        "population_proper": "114256"
    }, 
    {
        "city": "\u014csh\u016b", 
        "lat": "39.1444", 
        "lng": "141.1389", 
        "country": "Japan", 
        "iso2": "JP", 
        "admin_name": "Iwate", 
        "capital": "", 
        "population": "114246", 
        "population_proper": "114246"
    }, 
    {
        "city": "Hikone", 
        "lat": "35.2744", 
        "lng": "136.2597", 
        "country": "Japan", 
        "iso2": "JP", 
        "admin_name": "Shiga", 
        "capital": "", 
        "population": "113818", 
        "population_proper": "113818"
    }, 
    {
        "city": "Higashi\u014dmi", 
        "lat": "35.1128", 
        "lng": "136.2078", 
        "country": "Japan", 
        "iso2": "JP", 
        "admin_name": "Shiga", 
        "capital": "", 
        "population": "113165", 
        "population_proper": "113165"
    }, 
    {
        "city": "Fujimino", 
        "lat": "35.8794", 
        "lng": "139.5197", 
        "country": "Japan", 
        "iso2": "JP", 
        "admin_name": "Saitama", 
        "capital": "", 
        "population": "112689", 
        "population_proper": "112689"
    }, 
    {
        "city": "Akishima", 
        "lat": "35.7056", 
        "lng": "139.3536", 
        "country": "Japan", 
        "iso2": "JP", 
        "admin_name": "T\u014dky\u014d", 
        "capital": "", 
        "population": "112005", 
        "population_proper": "112005"
    }, 
    {
        "city": "Kazo", 
        "lat": "36.1314", 
        "lng": "139.6019", 
        "country": "Japan", 
        "iso2": "JP", 
        "admin_name": "Saitama", 
        "capital": "", 
        "population": "110921", 
        "population_proper": "110921"
    }, 
    {
        "city": "Sandach\u014d", 
        "lat": "34.8894", 
        "lng": "135.2253", 
        "country": "Japan", 
        "iso2": "JP", 
        "admin_name": "Hy\u014dgo", 
        "capital": "", 
        "population": "110820", 
        "population_proper": "110820"
    }, 
    {
        "city": "Shirayamamachi", 
        "lat": "36.5144", 
        "lng": "136.5656", 
        "country": "Japan", 
        "iso2": "JP", 
        "admin_name": "Ishikawa", 
        "capital": "", 
        "population": "110188", 
        "population_proper": "110188"
    }, 
    {
        "city": "Tondabayashich\u014d", 
        "lat": "34.4992", 
        "lng": "135.5972", 
        "country": "Japan", 
        "iso2": "JP", 
        "admin_name": "\u014csaka", 
        "capital": "", 
        "population": "110132", 
        "population_proper": "110132"
    }, 
    {
        "city": "Habikino", 
        "lat": "34.5578", 
        "lng": "135.6061", 
        "country": "Japan", 
        "iso2": "JP", 
        "admin_name": "\u014csaka", 
        "capital": "", 
        "population": "109553", 
        "population_proper": "109553"
    }, 
    {
        "city": "Kamagaya", 
        "lat": "35.7769", 
        "lng": "140.0008", 
        "country": "Japan", 
        "iso2": "JP", 
        "admin_name": "Chiba", 
        "capital": "", 
        "population": "109525", 
        "population_proper": "109525"
    }, 
    {
        "city": "Mineshita", 
        "lat": "35.1186", 
        "lng": "138.9186", 
        "country": "Japan", 
        "iso2": "JP", 
        "admin_name": "Shizuoka", 
        "capital": "", 
        "population": "108118", 
        "population_proper": "108118"
    }, 
    {
        "city": "Tajimi", 
        "lat": "35.3328", 
        "lng": "137.1322", 
        "country": "Japan", 
        "iso2": "JP", 
        "admin_name": "Gifu", 
        "capital": "", 
        "population": "107535", 
        "population_proper": "107535"
    }, 
    {
        "city": "Saij\u014d", 
        "lat": "33.9196", 
        "lng": "133.1812", 
        "country": "Japan", 
        "iso2": "JP", 
        "admin_name": "Ehime", 
        "capital": "", 
        "population": "105020", 
        "population_proper": "105020"
    }, 
    {
        "city": "Toride", 
        "lat": "35.9114", 
        "lng": "140.0503", 
        "country": "Japan", 
        "iso2": "JP", 
        "admin_name": "Ibaraki", 
        "capital": "", 
        "population": "104667", 
        "population_proper": "104667"
    }, 
    {
        "city": "Ikeda", 
        "lat": "34.8167", 
        "lng": "135.4333", 
        "country": "Japan", 
        "iso2": "JP", 
        "admin_name": "\u014csaka", 
        "capital": "", 
        "population": "104169", 
        "population_proper": "104169"
    }, 
    {
        "city": "Isehara", 
        "lat": "35.4028", 
        "lng": "139.3150", 
        "country": "Japan", 
        "iso2": "JP", 
        "admin_name": "Kanagawa", 
        "capital": "", 
        "population": "102137", 
        "population_proper": "102137"
    }, 
    {
        "city": "Shibuya", 
        "lat": "35.6536", 
        "lng": "139.7092", 
        "country": "Japan", 
        "iso2": "JP", 
        "admin_name": "T\u014dky\u014d", 
        "capital": "", 
        "population": "102056", 
        "population_proper": "102056"
    }, 
    {
        "city": "Sakado", 
        "lat": "35.9572", 
        "lng": "139.4031", 
        "country": "Japan", 
        "iso2": "JP", 
        "admin_name": "Saitama", 
        "capital": "", 
        "population": "101531", 
        "population_proper": "101531"
    }, 
    {
        "city": "Sakata", 
        "lat": "38.9144", 
        "lng": "139.8364", 
        "country": "Japan", 
        "iso2": "JP", 
        "admin_name": "Yamagata", 
        "capital": "", 
        "population": "100916", 
        "population_proper": "100916"
    }, 
    {
        "city": "Inzai", 
        "lat": "35.8322", 
        "lng": "140.1458", 
        "country": "Japan", 
        "iso2": "JP", 
        "admin_name": "Chiba", 
        "capital": "", 
        "population": "100907", 
        "population_proper": "100907"
    }, 
    {
        "city": "Chikusei", 
        "lat": "36.3072", 
        "lng": "139.9831", 
        "country": "Japan", 
        "iso2": "JP", 
        "admin_name": "Ibaraki", 
        "capital": "", 
        "population": "100816", 
        "population_proper": "100816"
    }, 
    {
        "city": "Tsuyama", 
        "lat": "35.1406", 
        "lng": "134.0319", 
        "country": "Japan", 
        "iso2": "JP", 
        "admin_name": "Okayama", 
        "capital": "", 
        "population": "100387", 
        "population_proper": "100387"
    }, 
    {
        "city": "Kani", 
        "lat": "35.4258", 
        "lng": "137.0611", 
        "country": "Japan", 
        "iso2": "JP", 
        "admin_name": "Gifu", 
        "capital": "", 
        "population": "100031", 
        "population_proper": "100031"
    }, 
    {
        "city": "Saku", 
        "lat": "36.2489", 
        "lng": "138.4769", 
        "country": "Japan", 
        "iso2": "JP", 
        "admin_name": "Nagano", 
        "capital": "", 
        "population": "98609", 
        "population_proper": "98609"
    }, 
    {
        "city": "Iida", 
        "lat": "35.5147", 
        "lng": "137.8219", 
        "country": "Japan", 
        "iso2": "JP", 
        "admin_name": "Nagano", 
        "capital": "", 
        "population": "98129", 
        "population_proper": "98129"
    }, 
    {
        "city": "Ginowan", 
        "lat": "26.2817", 
        "lng": "127.7783", 
        "country": "Japan", 
        "iso2": "JP", 
        "admin_name": "Okinawa", 
        "capital": "", 
        "population": "98093", 
        "population_proper": "98093"
    }, 
    {
        "city": "K\u014dnan", 
        "lat": "35.3333", 
        "lng": "136.8667", 
        "country": "Japan", 
        "iso2": "JP", 
        "admin_name": "Aichi", 
        "capital": "", 
        "population": "97893", 
        "population_proper": "97893"
    }, 
    {
        "city": "Fukata", 
        "lat": "33.8056", 
        "lng": "130.5406", 
        "country": "Japan", 
        "iso2": "JP", 
        "admin_name": "Fukuoka", 
        "capital": "", 
        "population": "96886", 
        "population_proper": "96886"
    }, 
    {
        "city": "Kanuma", 
        "lat": "36.5672", 
        "lng": "139.7450", 
        "country": "Japan", 
        "iso2": "JP", 
        "admin_name": "Tochigi", 
        "capital": "", 
        "population": "95812", 
        "population_proper": "95812"
    }, 
    {
        "city": "Kamisu", 
        "lat": "35.8900", 
        "lng": "140.6647", 
        "country": "Japan", 
        "iso2": "JP", 
        "admin_name": "Ibaraki", 
        "capital": "", 
        "population": "95370", 
        "population_proper": "95370"
    }, 
    {
        "city": "\u014cmura", 
        "lat": "32.9000", 
        "lng": "129.9583", 
        "country": "Japan", 
        "iso2": "JP", 
        "admin_name": "Nagasaki", 
        "capital": "", 
        "population": "95062", 
        "population_proper": "95062"
    }, 
    {
        "city": "Azumino", 
        "lat": "36.3028", 
        "lng": "137.8997", 
        "country": "Japan", 
        "iso2": "JP", 
        "admin_name": "Nagano", 
        "capital": "", 
        "population": "94463", 
        "population_proper": "94463"
    }, 
    {
        "city": "Hanamaki Onsen", 
        "lat": "39.3886", 
        "lng": "141.1167", 
        "country": "Japan", 
        "iso2": "JP", 
        "admin_name": "Iwate", 
        "capital": "", 
        "population": "94007", 
        "population_proper": "94007"
    }, 
    {
        "city": "Yashio", 
        "lat": "35.8228", 
        "lng": "139.8392", 
        "country": "Japan", 
        "iso2": "JP", 
        "admin_name": "Saitama", 
        "capital": "", 
        "population": "92672", 
        "population_proper": "92672"
    }, 
    {
        "city": "Yotsukaid\u014d", 
        "lat": "35.6700", 
        "lng": "140.1683", 
        "country": "Japan", 
        "iso2": "JP", 
        "admin_name": "Chiba", 
        "capital": "", 
        "population": "92668", 
        "population_proper": "92668"
    }, 
    {
        "city": "Kitakami", 
        "lat": "39.2867", 
        "lng": "141.1131", 
        "country": "Japan", 
        "iso2": "JP", 
        "admin_name": "Iwate", 
        "capital": "", 
        "population": "92447", 
        "population_proper": "92447"
    }, 
    {
        "city": "Higashi-Matsuyama", 
        "lat": "36.0422", 
        "lng": "139.4000", 
        "country": "Japan", 
        "iso2": "JP", 
        "admin_name": "Saitama", 
        "capital": "", 
        "population": "92302", 
        "population_proper": "92302"
    }, 
    {
        "city": "\u014cbu", 
        "lat": "35.0167", 
        "lng": "136.9667", 
        "country": "Japan", 
        "iso2": "JP", 
        "admin_name": "Aichi", 
        "capital": "", 
        "population": "92101", 
        "population_proper": "92101"
    }, 
    {
        "city": "Mihara", 
        "lat": "34.4581", 
        "lng": "133.0039", 
        "country": "Japan", 
        "iso2": "JP", 
        "admin_name": "Hiroshima", 
        "capital": "", 
        "population": "91604", 
        "population_proper": "91604"
    }, 
    {
        "city": "Nisshin", 
        "lat": "35.1333", 
        "lng": "137.0333", 
        "country": "Japan", 
        "iso2": "JP", 
        "admin_name": "Aichi", 
        "capital": "", 
        "population": "91514", 
        "population_proper": "91514"
    }, 
    {
        "city": "Imizuch\u014d", 
        "lat": "36.7125", 
        "lng": "137.0994", 
        "country": "Japan", 
        "iso2": "JP", 
        "admin_name": "Toyama", 
        "capital": "", 
        "population": "90877", 
        "population_proper": "90877"
    }, 
    {
        "city": "Takagi", 
        "lat": "36.1669", 
        "lng": "136.2317", 
        "country": "Japan", 
        "iso2": "JP", 
        "admin_name": "Fukui", 
        "capital": "", 
        "population": "88795", 
        "population_proper": "88795"
    }, 
    {
        "city": "Takasagoch\u014d-takasemachi", 
        "lat": "34.7658", 
        "lng": "134.7906", 
        "country": "Japan", 
        "iso2": "JP", 
        "admin_name": "Hy\u014dgo", 
        "capital": "", 
        "population": "88223", 
        "population_proper": "88223"
    }, 
    {
        "city": "Mobara", 
        "lat": "35.4283", 
        "lng": "140.2881", 
        "country": "Japan", 
        "iso2": "JP", 
        "admin_name": "Chiba", 
        "capital": "", 
        "population": "87450", 
        "population_proper": "87450"
    }, 
    {
        "city": "Gotenba", 
        "lat": "35.3086", 
        "lng": "138.9350", 
        "country": "Japan", 
        "iso2": "JP", 
        "admin_name": "Shizuoka", 
        "capital": "", 
        "population": "87078", 
        "population_proper": "87078"
    }, 
    {
        "city": "Fukuroi", 
        "lat": "34.7503", 
        "lng": "137.9250", 
        "country": "Japan", 
        "iso2": "JP", 
        "admin_name": "Shizuoka", 
        "capital": "", 
        "population": "87064", 
        "population_proper": "87064"
    }, 
    {
        "city": "Sekimachi", 
        "lat": "35.4958", 
        "lng": "136.9178", 
        "country": "Japan", 
        "iso2": "JP", 
        "admin_name": "Gifu", 
        "capital": "", 
        "population": "86698", 
        "population_proper": "86698"
    }, 
    {
        "city": "Yokotemachi", 
        "lat": "39.3106", 
        "lng": "140.5533", 
        "country": "Japan", 
        "iso2": "JP", 
        "admin_name": "Akita", 
        "capital": "", 
        "population": "86499", 
        "population_proper": "86499"
    }, 
    {
        "city": "Kitanagoya", 
        "lat": "35.2500", 
        "lng": "136.8667", 
        "country": "Japan", 
        "iso2": "JP", 
        "admin_name": "Aichi", 
        "capital": "", 
        "population": "85899", 
        "population_proper": "85899"
    }, 
    {
        "city": "Kitak\u014driyamach\u014d", 
        "lat": "34.6494", 
        "lng": "135.7828", 
        "country": "Japan", 
        "iso2": "JP", 
        "admin_name": "Nara", 
        "capital": "", 
        "population": "84820", 
        "population_proper": "84820"
    }, 
    {
        "city": "Ushiku", 
        "lat": "35.9833", 
        "lng": "140.1500", 
        "country": "Japan", 
        "iso2": "JP", 
        "admin_name": "Ibaraki", 
        "capital": "", 
        "population": "84637", 
        "population_proper": "84637"
    }, 
    {
        "city": "Higashiyamato", 
        "lat": "35.7456", 
        "lng": "139.4267", 
        "country": "Japan", 
        "iso2": "JP", 
        "admin_name": "T\u014dky\u014d", 
        "capital": "", 
        "population": "84223", 
        "population_proper": "84223"
    }, 
    {
        "city": "Chita", 
        "lat": "35.0000", 
        "lng": "136.8667", 
        "country": "Japan", 
        "iso2": "JP", 
        "admin_name": "Aichi", 
        "capital": "", 
        "population": "83946", 
        "population_proper": "83946"
    }, 
    {
        "city": "Muroran", 
        "lat": "42.3153", 
        "lng": "140.9736", 
        "country": "Japan", 
        "iso2": "JP", 
        "admin_name": "Hokkaid\u014d", 
        "capital": "", 
        "population": "83287", 
        "population_proper": "83287"
    }, 
    {
        "city": "Nakatsu", 
        "lat": "33.5983", 
        "lng": "131.1883", 
        "country": "Japan", 
        "iso2": "JP", 
        "admin_name": "Fukuoka", 
        "capital": "", 
        "population": "82875", 
        "population_proper": "82875"
    }, 
    {
        "city": "Kimitsu", 
        "lat": "35.3306", 
        "lng": "139.9025", 
        "country": "Japan", 
        "iso2": "JP", 
        "admin_name": "Chiba", 
        "capital": "", 
        "population": "82548", 
        "population_proper": "82548"
    }, 
    {
        "city": "Moriyama", 
        "lat": "35.0589", 
        "lng": "135.9944", 
        "country": "Japan", 
        "iso2": "JP", 
        "admin_name": "Shiga", 
        "capital": "", 
        "population": "82526", 
        "population_proper": "82526"
    }, 
    {
        "city": "Kaneyama", 
        "lat": "31.3833", 
        "lng": "130.8500", 
        "country": "Japan", 
        "iso2": "JP", 
        "admin_name": "Kagoshima", 
        "capital": "", 
        "population": "82335", 
        "population_proper": "54692"
    }, 
    {
        "city": "Owariasahi", 
        "lat": "35.2167", 
        "lng": "137.0333", 
        "country": "Japan", 
        "iso2": "JP", 
        "admin_name": "Aichi", 
        "capital": "", 
        "population": "81914", 
        "population_proper": "81914"
    }, 
    {
        "city": "\u014cmihachiman", 
        "lat": "35.1283", 
        "lng": "136.0981", 
        "country": "Japan", 
        "iso2": "JP", 
        "admin_name": "Shiga", 
        "capital": "", 
        "population": "81322", 
        "population_proper": "81322"
    }, 
    {
        "city": "Iwamizawa", 
        "lat": "43.1961", 
        "lng": "141.7758", 
        "country": "Japan", 
        "iso2": "JP", 
        "admin_name": "Hokkaid\u014d", 
        "capital": "", 
        "population": "80753", 
        "population_proper": "80753"
    }, 
    {
        "city": "Nagaoka", 
        "lat": "34.9267", 
        "lng": "135.6956", 
        "country": "Japan", 
        "iso2": "JP", 
        "admin_name": "Ky\u014dto", 
        "capital": "", 
        "population": "80514", 
        "population_proper": "80514"
    }, 
    {
        "city": "Gamag\u014dri", 
        "lat": "34.8264", 
        "lng": "137.2196", 
        "country": "Japan", 
        "iso2": "JP", 
        "admin_name": "Aichi", 
        "capital": "", 
        "population": "80091", 
        "population_proper": "80091"
    }, 
    {
        "city": "Akiruno", 
        "lat": "35.7289", 
        "lng": "139.2942", 
        "country": "Japan", 
        "iso2": "JP", 
        "admin_name": "T\u014dky\u014d", 
        "capital": "", 
        "population": "80074", 
        "population_proper": "80074"
    }, 
    {
        "city": "Hann\u014d", 
        "lat": "35.8558", 
        "lng": "139.3278", 
        "country": "Japan", 
        "iso2": "JP", 
        "admin_name": "Saitama", 
        "capital": "", 
        "population": "79891", 
        "population_proper": "79891"
    }, 
    {
        "city": "Maizuru", 
        "lat": "35.4500", 
        "lng": "135.3167", 
        "country": "Japan", 
        "iso2": "JP", 
        "admin_name": "Ky\u014dto", 
        "capital": "", 
        "population": "79886", 
        "population_proper": "79886"
    }, 
    {
        "city": "Gy\u014dda", 
        "lat": "36.1389", 
        "lng": "139.4558", 
        "country": "Japan", 
        "iso2": "JP", 
        "admin_name": "Saitama", 
        "capital": "", 
        "population": "79405", 
        "population_proper": "79405"
    }, 
    {
        "city": "Mooka", 
        "lat": "36.4403", 
        "lng": "140.0131", 
        "country": "Japan", 
        "iso2": "JP", 
        "admin_name": "Tochigi", 
        "capital": "", 
        "population": "79109", 
        "population_proper": "79109"
    }, 
    {
        "city": "Natori-shi", 
        "lat": "38.1717", 
        "lng": "140.8919", 
        "country": "Japan", 
        "iso2": "JP", 
        "admin_name": "Miyagi", 
        "capital": "", 
        "population": "78796", 
        "population_proper": "78796"
    }, 
    {
        "city": "Nikk\u014d", 
        "lat": "36.7198", 
        "lng": "139.6982", 
        "country": "Japan", 
        "iso2": "JP", 
        "admin_name": "Tochigi", 
        "capital": "", 
        "population": "78768", 
        "population_proper": "78768"
    }, 
    {
        "city": "Toyooka", 
        "lat": "35.5333", 
        "lng": "134.8167", 
        "country": "Japan", 
        "iso2": "JP", 
        "admin_name": "Hy\u014dgo", 
        "capital": "", 
        "population": "78299", 
        "population_proper": "78299"
    }, 
    {
        "city": "Daisen", 
        "lat": "39.4531", 
        "lng": "140.4756", 
        "country": "Japan", 
        "iso2": "JP", 
        "admin_name": "Akita", 
        "capital": "", 
        "population": "77886", 
        "population_proper": "77886"
    }, 
    {
        "city": "Toyomamachi-teraike", 
        "lat": "38.6919", 
        "lng": "141.1878", 
        "country": "Japan", 
        "iso2": "JP", 
        "admin_name": "Miyagi", 
        "capital": "", 
        "population": "77795", 
        "population_proper": "77795"
    }, 
    {
        "city": "Tsubame", 
        "lat": "37.6667", 
        "lng": "138.9667", 
        "country": "Japan", 
        "iso2": "JP", 
        "admin_name": "Niigata", 
        "capital": "", 
        "population": "77307", 
        "population_proper": "77307"
    }, 
    {
        "city": "Honj\u014d", 
        "lat": "36.2439", 
        "lng": "139.1903", 
        "country": "Japan", 
        "iso2": "JP", 
        "admin_name": "Saitama", 
        "capital": "", 
        "population": "77045", 
        "population_proper": "77045"
    }, 
    {
        "city": "Ry\u016bgasaki", 
        "lat": "35.9167", 
        "lng": "140.1833", 
        "country": "Japan", 
        "iso2": "JP", 
        "admin_name": "Ibaraki", 
        "capital": "", 
        "population": "76741", 
        "population_proper": "76741"
    }, 
    {
        "city": "Fukuchiyama", 
        "lat": "35.2967", 
        "lng": "135.1264", 
        "country": "Japan", 
        "iso2": "JP", 
        "admin_name": "Ky\u014dto", 
        "capital": "", 
        "population": "76677", 
        "population_proper": "76677"
    }, 
    {
        "city": "Nakatsugawa", 
        "lat": "35.4875", 
        "lng": "137.5006", 
        "country": "Japan", 
        "iso2": "JP", 
        "admin_name": "Gifu", 
        "capital": "", 
        "population": "76442", 
        "population_proper": "76442"
    }, 
    {
        "city": "Sasagawa", 
        "lat": "37.2867", 
        "lng": "140.3728", 
        "country": "Japan", 
        "iso2": "JP", 
        "admin_name": "Fukushima", 
        "capital": "", 
        "population": "75822", 
        "population_proper": "75822"
    }, 
    {
        "city": "Yurihonj\u014d", 
        "lat": "39.3858", 
        "lng": "140.0489", 
        "country": "Japan", 
        "iso2": "JP", 
        "admin_name": "Akita", 
        "capital": "", 
        "population": "75417", 
        "population_proper": "75417"
    }, 
    {
        "city": "Shinkai", 
        "lat": "35.8367", 
        "lng": "139.5803", 
        "country": "Japan", 
        "iso2": "JP", 
        "admin_name": "Saitama", 
        "capital": "", 
        "population": "75265", 
        "population_proper": "75265"
    }, 
    {
        "city": "Kunitachi", 
        "lat": "35.6839", 
        "lng": "139.4414", 
        "country": "Japan", 
        "iso2": "JP", 
        "admin_name": "T\u014dky\u014d", 
        "capital": "", 
        "population": "75156", 
        "population_proper": "75156"
    }, 
    {
        "city": "Tatsunoch\u014d-tominaga", 
        "lat": "34.8581", 
        "lng": "134.5456", 
        "country": "Japan", 
        "iso2": "JP", 
        "admin_name": "Hy\u014dgo", 
        "capital": "", 
        "population": "74892", 
        "population_proper": "74892"
    }, 
    {
        "city": "Tatebayashi", 
        "lat": "36.2450", 
        "lng": "139.5422", 
        "country": "Japan", 
        "iso2": "JP", 
        "admin_name": "Gunma", 
        "capital": "", 
        "population": "74520", 
        "population_proper": "74520"
    }, 
    {
        "city": "Shibukawa", 
        "lat": "36.4833", 
        "lng": "139.0000", 
        "country": "Japan", 
        "iso2": "JP", 
        "admin_name": "Gunma", 
        "capital": "", 
        "population": "74425", 
        "population_proper": "74425"
    }, 
    {
        "city": "Kasama", 
        "lat": "36.3450", 
        "lng": "140.3042", 
        "country": "Japan", 
        "iso2": "JP", 
        "admin_name": "Ibaraki", 
        "capital": "", 
        "population": "74334", 
        "population_proper": "74334"
    }, 
    {
        "city": "Inuyama", 
        "lat": "35.3833", 
        "lng": "136.9500", 
        "country": "Japan", 
        "iso2": "JP", 
        "admin_name": "Aichi", 
        "capital": "", 
        "population": "73541", 
        "population_proper": "73541"
    }, 
    {
        "city": "\u014ctawara", 
        "lat": "36.8667", 
        "lng": "140.0167", 
        "country": "Japan", 
        "iso2": "JP", 
        "admin_name": "Tochigi", 
        "capital": "", 
        "population": "73508", 
        "population_proper": "73508"
    }, 
    {
        "city": "Ishioka", 
        "lat": "36.1833", 
        "lng": "140.2833", 
        "country": "Japan", 
        "iso2": "JP", 
        "admin_name": "Ibaraki", 
        "capital": "", 
        "population": "73110", 
        "population_proper": "73110"
    }, 
    {
        "city": "Katori", 
        "lat": "35.8978", 
        "lng": "140.4992", 
        "country": "Japan", 
        "iso2": "JP", 
        "admin_name": "Chiba", 
        "capital": "", 
        "population": "73110", 
        "population_proper": "73110"
    }, 
    {
        "city": "Hekinan", 
        "lat": "34.8833", 
        "lng": "137.0000", 
        "country": "Japan", 
        "iso2": "JP", 
        "admin_name": "Aichi", 
        "capital": "", 
        "population": "72875", 
        "population_proper": "72875"
    }, 
    {
        "city": "Chiry\u016b", 
        "lat": "35.0000", 
        "lng": "137.1167", 
        "country": "Japan", 
        "iso2": "JP", 
        "admin_name": "Aichi", 
        "capital": "", 
        "population": "72166", 
        "population_proper": "72166"
    }, 
    {
        "city": "Yoshikawa", 
        "lat": "35.8911", 
        "lng": "139.8414", 
        "country": "Japan", 
        "iso2": "JP", 
        "admin_name": "Saitama", 
        "capital": "", 
        "population": "71763", 
        "population_proper": "71763"
    }, 
    {
        "city": "Uwajima", 
        "lat": "33.2233", 
        "lng": "132.5606", 
        "country": "Japan", 
        "iso2": "JP", 
        "admin_name": "Ehime", 
        "capital": "", 
        "population": "71586", 
        "population_proper": "71586"
    }, 
    {
        "city": "Musashimurayama", 
        "lat": "35.7547", 
        "lng": "139.3875", 
        "country": "Japan", 
        "iso2": "JP", 
        "admin_name": "T\u014dky\u014d", 
        "capital": "", 
        "population": "71579", 
        "population_proper": "71579"
    }, 
    {
        "city": "Yawata-shimizui", 
        "lat": "34.8756", 
        "lng": "135.7078", 
        "country": "Japan", 
        "iso2": "JP", 
        "admin_name": "Ky\u014dto", 
        "capital": "", 
        "population": "70931", 
        "population_proper": "70931"
    }, 
    {
        "city": "Tanabe", 
        "lat": "33.7333", 
        "lng": "135.3833", 
        "country": "Japan", 
        "iso2": "JP", 
        "admin_name": "Wakayama", 
        "capital": "", 
        "population": "70410", 
        "population_proper": "70410"
    }, 
    {
        "city": "\u014cdate", 
        "lat": "40.2717", 
        "lng": "140.5647", 
        "country": "Japan", 
        "iso2": "JP", 
        "admin_name": "Akita", 
        "capital": "", 
        "population": "70085", 
        "population_proper": "70085"
    }, 
    {
        "city": "Tsurugashima", 
        "lat": "35.9344", 
        "lng": "139.3931", 
        "country": "Japan", 
        "iso2": "JP", 
        "admin_name": "Saitama", 
        "capital": "", 
        "population": "70076", 
        "population_proper": "70076"
    }, 
    {
        "city": "Kiyosu", 
        "lat": "35.2000", 
        "lng": "136.8500", 
        "country": "Japan", 
        "iso2": "JP", 
        "admin_name": "Aichi", 
        "capital": "", 
        "population": "69680", 
        "population_proper": "69680"
    }, 
    {
        "city": "Toyoake", 
        "lat": "35.0625", 
        "lng": "137.0089", 
        "country": "Japan", 
        "iso2": "JP", 
        "admin_name": "Aichi", 
        "capital": "", 
        "population": "69448", 
        "population_proper": "69448"
    }, 
    {
        "city": "Ritt\u014d", 
        "lat": "35.0217", 
        "lng": "135.9981", 
        "country": "Japan", 
        "iso2": "JP", 
        "admin_name": "Shiga", 
        "capital": "", 
        "population": "69294", 
        "population_proper": "69294"
    }, 
    {
        "city": "Sabae", 
        "lat": "35.9567", 
        "lng": "136.1844", 
        "country": "Japan", 
        "iso2": "JP", 
        "admin_name": "Fukui", 
        "capital": "", 
        "population": "68533", 
        "population_proper": "68533"
    }, 
    {
        "city": "S\u014dja", 
        "lat": "34.6728", 
        "lng": "133.7467", 
        "country": "Japan", 
        "iso2": "JP", 
        "admin_name": "Okayama", 
        "capital": "", 
        "population": "68172", 
        "population_proper": "68172"
    }, 
    {
        "city": "Saiki", 
        "lat": "32.9603", 
        "lng": "131.8994", 
        "country": "Japan", 
        "iso2": "JP", 
        "admin_name": "\u014cita", 
        "capital": "", 
        "population": "67931", 
        "population_proper": "67931"
    }, 
    {
        "city": "Yachimata", 
        "lat": "35.6658", 
        "lng": "140.3183", 
        "country": "Japan", 
        "iso2": "JP", 
        "admin_name": "Chiba", 
        "capital": "", 
        "population": "67522", 
        "population_proper": "67522"
    }, 
    {
        "city": "Kashima", 
        "lat": "35.9658", 
        "lng": "140.6450", 
        "country": "Japan", 
        "iso2": "JP", 
        "admin_name": "Ibaraki", 
        "capital": "", 
        "population": "67448", 
        "population_proper": "67448"
    }, 
    {
        "city": "Shiojiri", 
        "lat": "36.1167", 
        "lng": "137.9500", 
        "country": "Japan", 
        "iso2": "JP", 
        "admin_name": "Nagano", 
        "capital": "", 
        "population": "66737", 
        "population_proper": "66737"
    }, 
    {
        "city": "Ina", 
        "lat": "35.8275", 
        "lng": "137.9539", 
        "country": "Japan", 
        "iso2": "JP", 
        "admin_name": "Nagano", 
        "capital": "", 
        "population": "66641", 
        "population_proper": "66641"
    }, 
    {
        "city": "Hashima", 
        "lat": "35.3167", 
        "lng": "136.7000", 
        "country": "Japan", 
        "iso2": "JP", 
        "admin_name": "Gifu", 
        "capital": "", 
        "population": "66573", 
        "population_proper": "66573"
    }, 
    {
        "city": "Kitamoto", 
        "lat": "36.0269", 
        "lng": "139.5300", 
        "country": "Japan", 
        "iso2": "JP", 
        "admin_name": "Saitama", 
        "capital": "", 
        "population": "65478", 
        "population_proper": "65478"
    }, 
    {
        "city": "Kurihara", 
        "lat": "38.7303", 
        "lng": "141.0214", 
        "country": "Japan", 
        "iso2": "JP", 
        "admin_name": "Miyagi", 
        "capital": "", 
        "population": "65313", 
        "population_proper": "65313"
    }, 
    {
        "city": "Tamana", 
        "lat": "32.9281", 
        "lng": "130.5597", 
        "country": "Japan", 
        "iso2": "JP", 
        "admin_name": "Kumamoto", 
        "capital": "", 
        "population": "64966", 
        "population_proper": "64966"
    }, 
    {
        "city": "Tsuruga", 
        "lat": "35.6372", 
        "lng": "136.0806", 
        "country": "Japan", 
        "iso2": "JP", 
        "admin_name": "Fukui", 
        "capital": "", 
        "population": "64474", 
        "population_proper": "64474"
    }, 
    {
        "city": "Asahi", 
        "lat": "35.7203", 
        "lng": "140.6467", 
        "country": "Japan", 
        "iso2": "JP", 
        "admin_name": "Chiba", 
        "capital": "", 
        "population": "64302", 
        "population_proper": "64302"
    }, 
    {
        "city": "Fujiidera", 
        "lat": "34.5747", 
        "lng": "135.5975", 
        "country": "Japan", 
        "iso2": "JP", 
        "admin_name": "\u014csaka", 
        "capital": "", 
        "population": "63814", 
        "population_proper": "63814"
    }, 
    {
        "city": "Tomigusuku", 
        "lat": "26.1772", 
        "lng": "127.6811", 
        "country": "Japan", 
        "iso2": "JP", 
        "admin_name": "Okinawa", 
        "capital": "", 
        "population": "63700", 
        "population_proper": "63700"
    }, 
    {
        "city": "Fujioka", 
        "lat": "36.2667", 
        "lng": "139.0667", 
        "country": "Japan", 
        "iso2": "JP", 
        "admin_name": "Gunma", 
        "capital": "", 
        "population": "63556", 
        "population_proper": "63556"
    }, 
    {
        "city": "Nago", 
        "lat": "26.5917", 
        "lng": "127.9775", 
        "country": "Japan", 
        "iso2": "JP", 
        "admin_name": "Okinawa", 
        "capital": "", 
        "population": "62725", 
        "population_proper": "62725"
    }, 
    {
        "city": "Tend\u014d", 
        "lat": "38.3622", 
        "lng": "140.3783", 
        "country": "Japan", 
        "iso2": "JP", 
        "admin_name": "Yamagata", 
        "capital": "", 
        "population": "62032", 
        "population_proper": "62032"
    }, 
    {
        "city": "Shiroi", 
        "lat": "35.7917", 
        "lng": "140.0564", 
        "country": "Japan", 
        "iso2": "JP", 
        "admin_name": "Chiba", 
        "capital": "", 
        "population": "61931", 
        "population_proper": "61931"
    }, 
    {
        "city": "Tsushima", 
        "lat": "35.1833", 
        "lng": "136.7333", 
        "country": "Japan", 
        "iso2": "JP", 
        "admin_name": "Aichi", 
        "capital": "", 
        "population": "61732", 
        "population_proper": "61732"
    }, 
    {
        "city": "Og\u014dshi", 
        "lat": "32.8858", 
        "lng": "130.7897", 
        "country": "Japan", 
        "iso2": "JP", 
        "admin_name": "Kumamoto", 
        "capital": "", 
        "population": "61531", 
        "population_proper": "61531"
    }, 
    {
        "city": "Hasuda", 
        "lat": "35.9942", 
        "lng": "139.6622", 
        "country": "Japan", 
        "iso2": "JP", 
        "admin_name": "Saitama", 
        "capital": "", 
        "population": "61507", 
        "population_proper": "61507"
    }, 
    {
        "city": "Aisai", 
        "lat": "35.1500", 
        "lng": "136.7333", 
        "country": "Japan", 
        "iso2": "JP", 
        "admin_name": "Aichi", 
        "capital": "", 
        "population": "61234", 
        "population_proper": "61234"
    }, 
    {
        "city": "\u014cwada", 
        "lat": "40.6128", 
        "lng": "141.2058", 
        "country": "Japan", 
        "iso2": "JP", 
        "admin_name": "Aomori", 
        "capital": "", 
        "population": "61058", 
        "population_proper": "61058"
    }, 
    {
        "city": "Hashimoto", 
        "lat": "34.3167", 
        "lng": "135.6000", 
        "country": "Japan", 
        "iso2": "JP", 
        "admin_name": "Wakayama", 
        "capital": "", 
        "population": "60885", 
        "population_proper": "60885"
    }, 
    {
        "city": "Itoman", 
        "lat": "26.1236", 
        "lng": "127.6658", 
        "country": "Japan", 
        "iso2": "JP", 
        "admin_name": "Okinawa", 
        "capital": "", 
        "population": "60546", 
        "population_proper": "60546"
    }, 
    {
        "city": "Tahara", 
        "lat": "34.6414", 
        "lng": "137.1831", 
        "country": "Japan", 
        "iso2": "JP", 
        "admin_name": "Aichi", 
        "capital": "", 
        "population": "60378", 
        "population_proper": "60378"
    }, 
    {
        "city": "Chichibu", 
        "lat": "35.9917", 
        "lng": "139.0856", 
        "country": "Japan", 
        "iso2": "JP", 
        "admin_name": "Saitama", 
        "capital": "", 
        "population": "60303", 
        "population_proper": "60303"
    }, 
    {
        "city": "Shirakawa", 
        "lat": "37.1264", 
        "lng": "140.2108", 
        "country": "Japan", 
        "iso2": "JP", 
        "admin_name": "Fukushima", 
        "capital": "", 
        "population": "59730", 
        "population_proper": "59730"
    }, 
    {
        "city": "J\u014ds\u014d", 
        "lat": "36.0236", 
        "lng": "139.9939", 
        "country": "Japan", 
        "iso2": "JP", 
        "admin_name": "Ibaraki", 
        "capital": "", 
        "population": "59647", 
        "population_proper": "59647"
    }, 
    {
        "city": "Date", 
        "lat": "37.8189", 
        "lng": "140.5631", 
        "country": "Japan", 
        "iso2": "JP", 
        "admin_name": "Fukushima", 
        "capital": "", 
        "population": "59441", 
        "population_proper": "59441"
    }, 
    {
        "city": "Shimotsuke", 
        "lat": "36.3872", 
        "lng": "139.8422", 
        "country": "Japan", 
        "iso2": "JP", 
        "admin_name": "Tochigi", 
        "capital": "", 
        "population": "59370", 
        "population_proper": "59370"
    }, 
    {
        "city": "Kokawa", 
        "lat": "34.2697", 
        "lng": "135.3625", 
        "country": "Japan", 
        "iso2": "JP", 
        "admin_name": "Wakayama", 
        "capital": "", 
        "population": "59208", 
        "population_proper": "59208"
    }, 
    {
        "city": "Choshi", 
        "lat": "35.7347", 
        "lng": "140.8267", 
        "country": "Japan", 
        "iso2": "JP", 
        "admin_name": "Chiba", 
        "capital": "", 
        "population": "59165", 
        "population_proper": "59165"
    }, 
    {
        "city": "Koga", 
        "lat": "33.7333", 
        "lng": "130.4667", 
        "country": "Japan", 
        "iso2": "JP", 
        "admin_name": "Fukuoka", 
        "capital": "", 
        "population": "59111", 
        "population_proper": "59111"
    }, 
    {
        "city": "Sayama", 
        "lat": "34.5036", 
        "lng": "135.5556", 
        "country": "Japan", 
        "iso2": "JP", 
        "admin_name": "\u014csaka", 
        "capital": "", 
        "population": "58746", 
        "population_proper": "58746"
    }, 
    {
        "city": "T\u014dgane", 
        "lat": "35.5600", 
        "lng": "140.3661", 
        "country": "Japan", 
        "iso2": "JP", 
        "admin_name": "Chiba", 
        "capital": "", 
        "population": "58686", 
        "population_proper": "58686"
    }, 
    {
        "city": "Koja", 
        "lat": "26.3643", 
        "lng": "127.8328", 
        "country": "Japan", 
        "iso2": "JP", 
        "admin_name": "Okinawa", 
        "capital": "", 
        "population": "58658", 
        "population_proper": "58658"
    }, 
    {
        "city": "Kosai", 
        "lat": "34.7186", 
        "lng": "137.5317", 
        "country": "Japan", 
        "iso2": "JP", 
        "admin_name": "Shizuoka", 
        "capital": "", 
        "population": "58423", 
        "population_proper": "58423"
    }, 
    {
        "city": "Ishikari", 
        "lat": "43.1783", 
        "lng": "141.3067", 
        "country": "Japan", 
        "iso2": "JP", 
        "admin_name": "Hokkaid\u014d", 
        "capital": "", 
        "population": "58277", 
        "population_proper": "58277"
    }, 
    {
        "city": "Murakami", 
        "lat": "38.2239", 
        "lng": "139.4801", 
        "country": "Japan", 
        "iso2": "JP", 
        "admin_name": "Niigata", 
        "capital": "", 
        "population": "58096", 
        "population_proper": "58096"
    }, 
    {
        "city": "Tokoname", 
        "lat": "34.8833", 
        "lng": "136.8333", 
        "country": "Japan", 
        "iso2": "JP", 
        "admin_name": "Aichi", 
        "capital": "", 
        "population": "57814", 
        "population_proper": "57814"
    }, 
    {
        "city": "Tama", 
        "lat": "34.4919", 
        "lng": "133.9458", 
        "country": "Japan", 
        "iso2": "JP", 
        "admin_name": "Okayama", 
        "capital": "", 
        "population": "57631", 
        "population_proper": "57631"
    }, 
    {
        "city": "Fussa", 
        "lat": "35.7386", 
        "lng": "139.3267", 
        "country": "Japan", 
        "iso2": "JP", 
        "admin_name": "T\u014dky\u014d", 
        "capital": "", 
        "population": "57527", 
        "population_proper": "57527"
    }, 
    {
        "city": "Kan\u2019onjich\u014d", 
        "lat": "34.1283", 
        "lng": "133.6628", 
        "country": "Japan", 
        "iso2": "JP", 
        "admin_name": "Kagawa", 
        "capital": "", 
        "population": "57333", 
        "population_proper": "57333"
    }, 
    {
        "city": "Zushi", 
        "lat": "35.2956", 
        "lng": "139.5803", 
        "country": "Japan", 
        "iso2": "JP", 
        "admin_name": "Kanagawa", 
        "capital": "", 
        "population": "56936", 
        "population_proper": "56936"
    }, 
    {
        "city": "Minokamo", 
        "lat": "35.4333", 
        "lng": "137.0167", 
        "country": "Japan", 
        "iso2": "JP", 
        "admin_name": "Gifu", 
        "capital": "", 
        "population": "56804", 
        "population_proper": "56804"
    }, 
    {
        "city": "Kudamatsu", 
        "lat": "34.0150", 
        "lng": "131.8703", 
        "country": "Japan", 
        "iso2": "JP", 
        "admin_name": "Yamaguchi", 
        "capital": "", 
        "population": "56634", 
        "population_proper": "56634"
    }, 
    {
        "city": "Muk\u014dch\u014d", 
        "lat": "34.9486", 
        "lng": "135.6983", 
        "country": "Japan", 
        "iso2": "JP", 
        "admin_name": "Ky\u014dto", 
        "capital": "", 
        "population": "56415", 
        "population_proper": "56415"
    }, 
    {
        "city": "Toki", 
        "lat": "35.3525", 
        "lng": "137.1833", 
        "country": "Japan", 
        "iso2": "JP", 
        "admin_name": "Gifu", 
        "capital": "", 
        "population": "56133", 
        "population_proper": "56133"
    }, 
    {
        "city": "Narutoch\u014d-mitsuishi", 
        "lat": "34.1667", 
        "lng": "134.6167", 
        "country": "Japan", 
        "iso2": "JP", 
        "admin_name": "Tokushima", 
        "capital": "", 
        "population": "56007", 
        "population_proper": "56007"
    }, 
    {
        "city": "N\u014dgata", 
        "lat": "33.7439", 
        "lng": "130.7297", 
        "country": "Japan", 
        "iso2": "JP", 
        "admin_name": "Fukuoka", 
        "capital": "", 
        "population": "55937", 
        "population_proper": "55937"
    }, 
    {
        "city": "Annaka", 
        "lat": "36.3264", 
        "lng": "138.8872", 
        "country": "Japan", 
        "iso2": "JP", 
        "admin_name": "Gunma", 
        "capital": "", 
        "population": "55578", 
        "population_proper": "55578"
    }, 
    {
        "city": "Chino", 
        "lat": "35.9956", 
        "lng": "138.1589", 
        "country": "Japan", 
        "iso2": "JP", 
        "admin_name": "Nagano", 
        "capital": "", 
        "population": "55531", 
        "population_proper": "55531"
    }, 
    {
        "city": "Hidaka", 
        "lat": "35.9078", 
        "lng": "139.3392", 
        "country": "Japan", 
        "iso2": "JP", 
        "admin_name": "Saitama", 
        "capital": "", 
        "population": "55241", 
        "population_proper": "55241"
    }, 
    {
        "city": "Sakurai", 
        "lat": "34.5189", 
        "lng": "135.8519", 
        "country": "Japan", 
        "iso2": "JP", 
        "admin_name": "Nara", 
        "capital": "", 
        "population": "55005", 
        "population_proper": "55005"
    }, 
    {
        "city": "Hamura", 
        "lat": "35.7672", 
        "lng": "139.3111", 
        "country": "Japan", 
        "iso2": "JP", 
        "admin_name": "T\u014dky\u014d", 
        "capital": "", 
        "population": "54874", 
        "population_proper": "54874"
    }, 
    {
        "city": "Mutsu", 
        "lat": "41.2931", 
        "lng": "141.1831", 
        "country": "Japan", 
        "iso2": "JP", 
        "admin_name": "Aomori", 
        "capital": "", 
        "population": "54721", 
        "population_proper": "54721"
    }, 
    {
        "city": "Hany\u016b", 
        "lat": "36.1728", 
        "lng": "139.5486", 
        "country": "Japan", 
        "iso2": "JP", 
        "admin_name": "Saitama", 
        "capital": "", 
        "population": "53870", 
        "population_proper": "53870"
    }, 
    {
        "city": "Minami-S\u014dma", 
        "lat": "37.6422", 
        "lng": "140.9572", 
        "country": "Japan", 
        "iso2": "JP", 
        "admin_name": "Fukushima", 
        "capital": "", 
        "population": "53643", 
        "population_proper": "53643"
    }, 
    {
        "city": "Funato", 
        "lat": "34.2564", 
        "lng": "135.3111", 
        "country": "Japan", 
        "iso2": "JP", 
        "admin_name": "Wakayama", 
        "capital": "", 
        "population": "53566", 
        "population_proper": "53566"
    }, 
    {
        "city": "Imarich\u014d-k\u014d", 
        "lat": "33.2647", 
        "lng": "129.8808", 
        "country": "Japan", 
        "iso2": "JP", 
        "admin_name": "Saga", 
        "capital": "", 
        "population": "53483", 
        "population_proper": "53483"
    }, 
    {
        "city": "Miyako", 
        "lat": "39.6414", 
        "lng": "141.9572", 
        "country": "Japan", 
        "iso2": "JP", 
        "admin_name": "Iwate", 
        "capital": "", 
        "population": "52471", 
        "population_proper": "52471"
    }, 
    {
        "city": "Shiraoka", 
        "lat": "36.0189", 
        "lng": "139.6769", 
        "country": "Japan", 
        "iso2": "JP", 
        "admin_name": "Saitama", 
        "capital": "", 
        "population": "52094", 
        "population_proper": "52094"
    }, 
    {
        "city": "Band\u014d", 
        "lat": "36.0483", 
        "lng": "139.8889", 
        "country": "Japan", 
        "iso2": "JP", 
        "admin_name": "Ibaraki", 
        "capital": "", 
        "population": "51903", 
        "population_proper": "51903"
    },