[
    {
        "city": "Barcelona", 
        "lat": "41.3825", 
        "lng": "2.1769", 
        "country": "Spain", 
        "iso2": "ES", 
        "admin_name": "Catalonia", 
        "capital": "admin", 
        "population": "4588000", 
        "population_proper": "1620343"
    }, 
    {
        "city": "Madrid", 
        "lat": "40.4189", 
        "lng": "-3.6919", 
        "country": "Spain", 
        "iso2": "ES", 
        "admin_name": "Madrid", 
        "capital": "primary", 
        "population": "3266126", 
        "population_proper": "3266126"
    }, 
    {
        "city": "Sevilla", 
        "lat": "37.3828", 
        "lng": "-5.9731", 
        "country": "Spain", 
        "iso2": "ES", 
        "admin_name": "Andalusia", 
        "capital": "admin", 
        "population": "1212045", 
        "population_proper": "703021"
    }, 
    {
        "city": "Valencia", 
        "lat": "39.4667", 
        "lng": "-0.3750", 
        "country": "Spain", 
        "iso2": "ES", 
        "admin_name": "Valencia", 
        "capital": "admin", 
        "population": "794288", 
        "population_proper": "794288"
    }, 
    {
        "city": "Zaragoza", 
        "lat": "41.6483", 
        "lng": "-0.8830", 
        "country": "Spain", 
        "iso2": "ES", 
        "admin_name": "Aragon", 
        "capital": "admin", 
        "population": "649404", 
        "population_proper": "448507"
    }, 
    {
        "city": "M\u00e1laga", 
        "lat": "36.7167", 
        "lng": "-4.4167", 
        "country": "Spain", 
        "iso2": "ES", 
        "admin_name": "Andalusia", 
        "capital": "minor", 
        "population": "574654", 
        "population_proper": "574654"
    }, 
    {
        "city": "Palma", 
        "lat": "39.5667", 
        "lng": "2.6497", 
        "country": "Spain", 
        "iso2": "ES", 
        "admin_name": "Balearic Islands", 
        "capital": "admin", 
        "population": "416065", 
        "population_proper": "416065"
    }, 
    {
        "city": "Murcia", 
        "lat": "37.9866", 
        "lng": "-1.1415", 
        "country": "Spain", 
        "iso2": "ES", 
        "admin_name": "Murcia", 
        "capital": "admin", 
        "population": "406807", 
        "population_proper": "329838"
    }, 
    {
        "city": "Las Palmas", 
        "lat": "28.1272", 
        "lng": "-15.4314", 
        "country": "Spain", 
        "iso2": "ES", 
        "admin_name": "Canary Islands", 
        "capital": "admin", 
        "population": "379925", 
        "population_proper": "379925"
    }, 
    {
        "city": "A Coru\u00f1a", 
        "lat": "43.3713", 
        "lng": "-8.4188", 
        "country": "Spain", 
        "iso2": "ES", 
        "admin_name": "Galicia", 
        "capital": "minor", 
        "population": "370610", 
        "population_proper": "242619"
    }, 
    {
        "city": "Donostia", 
        "lat": "43.3204", 
        "lng": "-1.9800", 
        "country": "Spain", 
        "iso2": "ES", 
        "admin_name": "Basque Country", 
        "capital": "minor", 
        "population": "357468", 
        "population_proper": "183528"
    }, 
    {
        "city": "Bilbao", 
        "lat": "43.2622", 
        "lng": "-2.9533", 
        "country": "Spain", 
        "iso2": "ES", 
        "admin_name": "Basque Country", 
        "capital": "minor", 
        "population": "346843", 
        "population_proper": "346843"
    }, 
    {
        "city": "Alicante", 
        "lat": "38.3453", 
        "lng": "-0.4831", 
        "country": "Spain", 
        "iso2": "ES", 
        "admin_name": "Valencia", 
        "capital": "minor", 
        "population": "334887", 
        "population_proper": "334887"
    }, 
    {
        "city": "C\u00f3rdoba", 
        "lat": "37.8833", 
        "lng": "-4.7667", 
        "country": "Spain", 
        "iso2": "ES", 
        "admin_name": "Andalusia", 
        "capital": "minor", 
        "population": "325701", 
        "population_proper": "325701"
    }, 
    {
        "city": "Valladolid", 
        "lat": "41.6520", 
        "lng": "-4.7286", 
        "country": "Spain", 
        "iso2": "ES", 
        "admin_name": "Castille-Leon", 
        "capital": "admin", 
        "population": "298412", 
        "population_proper": "298412"
    }, 
    {
        "city": "Vigo", 
        "lat": "42.2358", 
        "lng": "-8.7267", 
        "country": "Spain", 
        "iso2": "ES", 
        "admin_name": "Galicia", 
        "capital": "", 
        "population": "295364", 
        "population_proper": "295364"
    }, 
    {
        "city": "Gij\u00f3n", 
        "lat": "43.5293", 
        "lng": "-5.6773", 
        "country": "Spain", 
        "iso2": "ES", 
        "admin_name": "Asturias", 
        "capital": "", 
        "population": "271780", 
        "population_proper": "271780"
    }, 
    {
        "city": "Vitoria-Gasteiz", 
        "lat": "42.8467", 
        "lng": "-2.6731", 
        "country": "Spain", 
        "iso2": "ES", 
        "admin_name": "Basque Country", 
        "capital": "admin", 
        "population": "251774", 
        "population_proper": "251774"
    }, 
    {
        "city": "Granada", 
        "lat": "37.1781", 
        "lng": "-3.6008", 
        "country": "Spain", 
        "iso2": "ES", 
        "admin_name": "Andalusia", 
        "capital": "minor", 
        "population": "232462", 
        "population_proper": "232462"
    }, 
    {
        "city": "Badalona", 
        "lat": "41.4333", 
        "lng": "2.2333", 
        "country": "Spain", 
        "iso2": "ES", 
        "admin_name": "Catalonia", 
        "capital": "", 
        "population": "220440", 
        "population_proper": "220440"
    }, 
    {
        "city": "Cartagena", 
        "lat": "37.6000", 
        "lng": "-0.9819", 
        "country": "Spain", 
        "iso2": "ES", 
        "admin_name": "Murcia", 
        "capital": "", 
        "population": "214802", 
        "population_proper": "214802"
    }, 
    {
        "city": "Sabadell", 
        "lat": "41.5483", 
        "lng": "2.1075", 
        "country": "Spain", 
        "iso2": "ES", 
        "admin_name": "Catalonia", 
        "capital": "", 
        "population": "213644", 
        "population_proper": "213644"
    }, 
    {
        "city": "Jerez de la Frontera", 
        "lat": "36.7000", 
        "lng": "-6.1167", 
        "country": "Spain", 
        "iso2": "ES", 
        "admin_name": "Andalusia", 
        "capital": "", 
        "population": "212749", 
        "population_proper": "212749"
    }, 
    {
        "city": "Santa Cruz", 
        "lat": "28.4667", 
        "lng": "-16.2500", 
        "country": "Spain", 
        "iso2": "ES", 
        "admin_name": "Canary Islands", 
        "capital": "admin", 
        "population": "207312", 
        "population_proper": "207312"
    }, 
    {
        "city": "Pamplona", 
        "lat": "42.8167", 
        "lng": "-1.6500", 
        "country": "Spain", 
        "iso2": "ES", 
        "admin_name": "Navarre", 
        "capital": "admin", 
        "population": "201653", 
        "population_proper": "201653"
    }, 
    {
        "city": "Almer\u00eda", 
        "lat": "36.8333", 
        "lng": "-2.4500", 
        "country": "Spain", 
        "iso2": "ES", 
        "admin_name": "Andalusia", 
        "capital": "minor", 
        "population": "198533", 
        "population_proper": "198533"
    }, 
    {
        "city": "Oviedo", 
        "lat": "43.3634", 
        "lng": "-5.8423", 
        "country": "Spain", 
        "iso2": "ES", 
        "admin_name": "Asturias", 
        "capital": "admin", 
        "population": "189434", 
        "population_proper": "189434"
    }, 
    {
        "city": "Matar\u00f3", 
        "lat": "41.5400", 
        "lng": "2.4500", 
        "country": "Spain", 
        "iso2": "ES", 
        "admin_name": "Catalonia", 
        "capital": "", 
        "population": "183293", 
        "population_proper": "116359"
    }, 
    {
        "city": "Albacete", 
        "lat": "38.9956", 
        "lng": "-1.8558", 
        "country": "Spain", 
        "iso2": "ES", 
        "admin_name": "Castille-La Mancha", 
        "capital": "minor", 
        "population": "173329", 
        "population_proper": "173329"
    }, 
    {
        "city": "Santander", 
        "lat": "43.4667", 
        "lng": "-3.8000", 
        "country": "Spain", 
        "iso2": "ES", 
        "admin_name": "Cantabria", 
        "capital": "admin", 
        "population": "172539", 
        "population_proper": "172539"
    }, 
    {
        "city": "Castell\u00f3n de la Plana", 
        "lat": "39.9700", 
        "lng": "-0.0500", 
        "country": "Spain", 
        "iso2": "ES", 
        "admin_name": "Valencia", 
        "capital": "minor", 
        "population": "171728", 
        "population_proper": "171728"
    }, 
    {
        "city": "Burgos", 
        "lat": "42.3500", 
        "lng": "-3.6822", 
        "country": "Spain", 
        "iso2": "ES", 
        "admin_name": "Castille-Leon", 
        "capital": "minor", 
        "population": "170183", 
        "population_proper": "130319"
    }, 
    {
        "city": "La Laguna", 
        "lat": "28.4800", 
        "lng": "-16.3200", 
        "country": "Spain", 
        "iso2": "ES", 
        "admin_name": "Canary Islands", 
        "capital": "", 
        "population": "157503", 
        "population_proper": "157503"
    }, 
    {
        "city": "Badajoz", 
        "lat": "38.8803", 
        "lng": "-6.9753", 
        "country": "Spain", 
        "iso2": "ES", 
        "admin_name": "Extremadura", 
        "capital": "minor", 
        "population": "150702", 
        "population_proper": "150702"
    }, 
    {
        "city": "Salamanca", 
        "lat": "40.9667", 
        "lng": "-5.6639", 
        "country": "Spain", 
        "iso2": "ES", 
        "admin_name": "Castille-Leon", 
        "capital": "minor", 
        "population": "144228", 
        "population_proper": "144228"
    }, 
    {
        "city": "Logro\u00f1o", 
        "lat": "42.4704", 
        "lng": "-2.4300", 
        "country": "Spain", 
        "iso2": "ES", 
        "admin_name": "La Rioja", 
        "capital": "admin", 
        "population": "143698", 
        "population_proper": "104139"
    }, 
    {
        "city": "Huelva", 
        "lat": "37.2500", 
        "lng": "-6.9500", 
        "country": "Spain", 
        "iso2": "ES", 
        "admin_name": "Andalusia", 
        "capital": "minor", 
        "population": "143663", 
        "population_proper": "143663"
    }, 
    {
        "city": "Marbella", 
        "lat": "36.5114", 
        "lng": "-4.8834", 
        "country": "Spain", 
        "iso2": "ES", 
        "admin_name": "Andalusia", 
        "capital": "", 
        "population": "143386", 
        "population_proper": "143386"
    }, 
    {
        "city": "Ciudad de Melilla", 
        "lat": "35.2937", 
        "lng": "-2.9383", 
        "country": "Spain", 
        "iso2": "ES", 
        "admin_name": "Melilla", 
        "capital": "", 
        "population": "141308", 
        "population_proper": "73460"
    }, 
    {
        "city": "Tarragona", 
        "lat": "41.1187", 
        "lng": "1.2453", 
        "country": "Spain", 
        "iso2": "ES", 
        "admin_name": "Catalonia", 
        "capital": "minor", 
        "population": "134515", 
        "population_proper": "134515"
    }, 
    {
        "city": "Le\u00f3n", 
        "lat": "42.5989", 
        "lng": "-5.5669", 
        "country": "Spain", 
        "iso2": "ES", 
        "admin_name": "Castille-Leon", 
        "capital": "minor", 
        "population": "124303", 
        "population_proper": "124303"
    }, 
    {
        "city": "C\u00e1diz", 
        "lat": "36.5350", 
        "lng": "-6.2975", 
        "country": "Spain", 
        "iso2": "ES", 
        "admin_name": "Andalusia", 
        "capital": "minor", 
        "population": "116027", 
        "population_proper": "116027"
    }, 
    {
        "city": "Ja\u00e9n", 
        "lat": "37.7697", 
        "lng": "-3.7889", 
        "country": "Spain", 
        "iso2": "ES", 
        "admin_name": "Andalusia", 
        "capital": "minor", 
        "population": "112999", 
        "population_proper": "112999"
    }, 
    {
        "city": "Algeciras", 
        "lat": "36.1267", 
        "lng": "-5.4665", 
        "country": "Spain", 
        "iso2": "ES", 
        "admin_name": "Andalusia", 
        "capital": "", 
        "population": "111027", 
        "population_proper": "102348"
    }, 
    {
        "city": "Ourense", 
        "lat": "42.3364", 
        "lng": "-7.8633", 
        "country": "Spain", 
        "iso2": "ES", 
        "admin_name": "Galicia", 
        "capital": "minor", 
        "population": "105233", 
        "population_proper": "105233"
    }, 
    {
        "city": "Girona", 
        "lat": "41.9833", 
        "lng": "2.8167", 
        "country": "Spain", 
        "iso2": "ES", 
        "admin_name": "Catalonia", 
        "capital": "minor", 
        "population": "101852", 
        "population_proper": "101852"
    }, 
    {
        "city": "Lugo", 
        "lat": "43.0117", 
        "lng": "-7.5572", 
        "country": "Spain", 
        "iso2": "ES", 
        "admin_name": "Galicia", 
        "capital": "minor", 
        "population": "98276", 
        "population_proper": "98276"
    }, 
    {
        "city": "C\u00e1ceres", 
        "lat": "39.4731", 
        "lng": "-6.3711", 
        "country": "Spain", 
        "iso2": "ES", 
        "admin_name": "Extremadura", 
        "capital": "minor", 
        "population": "96126", 
        "population_proper": "96126"
    }, 
    {
        "city": "Lorca", 
        "lat": "37.6833", 
        "lng": "-1.7000", 
        "country": "Spain", 
        "iso2": "ES", 
        "admin_name": "Murcia", 
        "capital": "", 
        "population": "94404", 
        "population_proper": "94404"
    }, 
    {
        "city": "Santiago de Compostela", 
        "lat": "42.8805", 
        "lng": "-8.5457", 
        "country": "Spain", 
        "iso2": "ES", 
        "admin_name": "Galicia", 
        "capital": "admin", 
        "population": "92430", 
        "population_proper": "83012"
    }, 
    {
        "city": "El Puerto de Santa Mar\u00eda", 
        "lat": "36.6015", 
        "lng": "-6.2381", 
        "country": "Spain", 
        "iso2": "ES", 
        "admin_name": "Andalusia", 
        "capital": "", 
        "population": "88405", 
        "population_proper": "88405"
    }, 
    {
        "city": "Ciudad de Ceuta", 
        "lat": "35.8867", 
        "lng": "-5.3000", 
        "country": "Spain", 
        "iso2": "ES", 
        "admin_name": "Ceuta", 
        "capital": "", 
        "population": "84777", 
        "population_proper": "84777"
    }, 
    {
        "city": "Pontevedra", 
        "lat": "42.4336", 
        "lng": "-8.6475", 
        "country": "Spain", 
        "iso2": "ES", 
        "admin_name": "Galicia", 
        "capital": "minor", 
        "population": "83029", 
        "population_proper": "83029"
    }, 
    {
        "city": "Mijas", 
        "lat": "36.5956", 
        "lng": "-4.6372", 
        "country": "Spain", 
        "iso2": "ES", 
        "admin_name": "Andalusia", 
        "capital": "", 
        "population": "82742", 
        "population_proper": "82742"
    }, 
    {
        "city": "Guadalajara", 
        "lat": "40.6335", 
        "lng": "-3.1669", 
        "country": "Spain", 
        "iso2": "ES", 
        "admin_name": "Castille-La Mancha", 
        "capital": "minor", 
        "population": "82376", 
        "population_proper": "82376"
    }, 
    {
        "city": "Avil\u00e9s", 
        "lat": "43.5561", 
        "lng": "-5.9222", 
        "country": "Spain", 
        "iso2": "ES", 
        "admin_name": "Asturias", 
        "capital": "", 
        "population": "78182", 
        "population_proper": "78182"
    }, 
    {
        "city": "Rub\u00ed", 
        "lat": "41.4933", 
        "lng": "2.0325", 
        "country": "Spain", 
        "iso2": "ES", 
        "admin_name": "Catalonia", 
        "capital": "", 
        "population": "77464", 
        "population_proper": "77464"
    }, 
    {
        "city": "Toledo", 
        "lat": "39.8670", 
        "lng": "-4.0167", 
        "country": "Spain", 
        "iso2": "ES", 
        "admin_name": "Castille-La Mancha", 
        "capital": "admin", 
        "population": "74632", 
        "population_proper": "33125"
    }, 
    {
        "city": "Gand\u00eda", 
        "lat": "38.9667", 
        "lng": "-0.1822", 
        "country": "Spain", 
        "iso2": "ES", 
        "admin_name": "Valencia", 
        "capital": "", 
        "population": "74562", 
        "population_proper": "74562"
    }, 
    {
        "city": "Benidorm", 
        "lat": "38.5342", 
        "lng": "-0.1314", 
        "country": "Spain", 
        "iso2": "ES", 
        "admin_name": "Valencia", 
        "capital": "", 
        "population": "68721", 
        "population_proper": "68721"
    }, 
    {
        "city": "Benalm\u00e1dena", 
        "lat": "36.5969", 
        "lng": "-4.5535", 
        "country": "Spain", 
        "iso2": "ES", 
        "admin_name": "Andalusia", 
        "capital": "", 
        "population": "68128", 
        "population_proper": "68128"
    }, 
    {
        "city": "Villanueva y Geltr\u00fa", 
        "lat": "41.2243", 
        "lng": "1.7259", 
        "country": "Spain", 
        "iso2": "ES", 
        "admin_name": "Catalonia", 
        "capital": "", 
        "population": "67086", 
        "population_proper": "67086"
    }, 
    {
        "city": "Ferrol", 
        "lat": "43.4667", 
        "lng": "-8.2500", 
        "country": "Spain", 
        "iso2": "ES", 
        "admin_name": "Galicia", 
        "capital": "", 
        "population": "66065", 
        "population_proper": "66065"
    }, 
    {
        "city": "La L\u00ednea de la Concepci\u00f3n", 
        "lat": "36.1611", 
        "lng": "-5.3486", 
        "country": "Spain", 
        "iso2": "ES", 
        "admin_name": "Andalusia", 
        "capital": "", 
        "population": "63147", 
        "population_proper": "63147"
    }, 
    {
        "city": "Arrecife", 
        "lat": "28.9625", 
        "lng": "-13.5506", 
        "country": "Spain", 
        "iso2": "ES", 
        "admin_name": "Canary Islands", 
        "capital": "", 
        "population": "62988", 
        "population_proper": "62988"
    }, 
    {
        "city": "Zamora", 
        "lat": "41.5033", 
        "lng": "-5.7556", 
        "country": "Spain", 
        "iso2": "ES", 
        "admin_name": "Castille-Leon", 
        "capital": "minor", 
        "population": "61406", 
        "population_proper": "61406"
    }, 
    {
        "city": "Granollers", 
        "lat": "41.6083", 
        "lng": "2.2889", 
        "country": "Spain", 
        "iso2": "ES", 
        "admin_name": "Catalonia", 
        "capital": "", 
        "population": "61275", 
        "population_proper": "61275"
    }, 
    {
        "city": "Linares", 
        "lat": "38.0833", 
        "lng": "-3.6334", 
        "country": "Spain", 
        "iso2": "ES", 
        "admin_name": "Andalusia", 
        "capital": "", 
        "population": "59761", 
        "population_proper": "39338"
    }, 
    {
        "city": "M\u00e9rida", 
        "lat": "38.9158", 
        "lng": "-6.3333", 
        "country": "Spain", 
        "iso2": "ES", 
        "admin_name": "Extremadura", 
        "capital": "admin", 
        "population": "59335", 
        "population_proper": "59335"
    }, 
    {
        "city": "Motril", 
        "lat": "36.7453", 
        "lng": "-3.5206", 
        "country": "Spain", 
        "iso2": "ES", 
        "admin_name": "Andalusia", 
        "capital": "", 
        "population": "58020", 
        "population_proper": "58020"
    }, 
    {
        "city": "\u00c1vila", 
        "lat": "40.6543", 
        "lng": "-4.6962", 
        "country": "Spain", 
        "iso2": "ES", 
        "admin_name": "Castille-Leon", 
        "capital": "minor", 
        "population": "57744", 
        "population_proper": "57744"
    }, 
    {
        "city": "Torrelavega", 
        "lat": "43.3531", 
        "lng": "-4.0458", 
        "country": "Spain", 
        "iso2": "ES", 
        "admin_name": "Cantabria", 
        "capital": "", 
        "population": "51494", 
        "population_proper": "51494"
    }, 
    {
        "city": "Villareal", 
        "lat": "39.9378", 
        "lng": "-0.1014", 
        "country": "Spain", 
        "iso2": "ES", 
        "admin_name": "Valencia", 
        "capital": "", 
        "population": "50893", 
        "population_proper": "50893"
    }, 
    {
        "city": "Ibiza", 
        "lat": "38.9089", 
        "lng": "1.4328", 
        "country": "Spain", 
        "iso2": "ES", 
        "admin_name": "Balearic Islands", 
        "capital": "", 
        "population": "49783", 
        "population_proper": "49783"
    }, 
    {
        "city": "Portugalete", 
        "lat": "43.3194", 
        "lng": "-3.0196", 
        "country": "Spain", 
        "iso2": "ES", 
        "admin_name": "Basque Country", 
        "capital": "", 
        "population": "45766", 
        "population_proper": "45766"
    }, 
    {
        "city": "Antequera", 
        "lat": "37.0184", 
        "lng": "-4.5597", 
        "country": "Spain", 
        "iso2": "ES", 
        "admin_name": "Andalusia", 
        "capital": "", 
        "population": "41239", 
        "population_proper": "41239"
    }, 
    {
        "city": "Plasencia", 
        "lat": "40.0275", 
        "lng": "-6.0908", 
        "country": "Spain", 
        "iso2": "ES", 
        "admin_name": "Extremadura", 
        "capital": "", 
        "population": "39913", 
        "population_proper": "39913"
    }, 
    {
        "city": "\u00c9cija", 
        "lat": "37.5411", 
        "lng": "-5.0792", 
        "country": "Spain", 
        "iso2": "ES", 
        "admin_name": "Andalusia", 
        "capital": "", 
        "population": "39873", 
        "population_proper": "39873"
    }, 
    {
        "city": "Tudela", 
        "lat": "42.0653", 
        "lng": "-1.6067", 
        "country": "Spain", 
        "iso2": "ES", 
        "admin_name": "Navarre", 
        "capital": "", 
        "population": "36258", 
        "population_proper": "36258"
    }, 
    {
        "city": "Onteniente", 
        "lat": "38.8222", 
        "lng": "-0.6072", 
        "country": "Spain", 
        "iso2": "ES", 
        "admin_name": "Valencia", 
        "capital": "", 
        "population": "35347", 
        "population_proper": "35347"
    }, 
    {
        "city": "Burriana", 
        "lat": "39.8894", 
        "lng": "-0.0925", 
        "country": "Spain", 
        "iso2": "ES", 
        "admin_name": "Valencia", 
        "capital": "", 
        "population": "34683", 
        "population_proper": "34683"
    }, 
    {
        "city": "Villena", 
        "lat": "38.6350", 
        "lng": "-0.8658", 
        "country": "Spain", 
        "iso2": "ES", 
        "admin_name": "Valencia", 
        "capital": "", 
        "population": "33964", 
        "population_proper": "33964"
    }, 
    {
        "city": "Ronda", 
        "lat": "36.7372", 
        "lng": "-5.1647", 
        "country": "Spain", 
        "iso2": "ES", 
        "admin_name": "Andalusia", 
        "capital": "", 
        "population": "33877", 
        "population_proper": "33877"
    }, 
    {
        "city": "Castro-Urdiales", 
        "lat": "43.3844", 
        "lng": "-3.2150", 
        "country": "Spain", 
        "iso2": "ES", 
        "admin_name": "Cantabria", 
        "capital": "", 
        "population": "32069", 
        "population_proper": "32069"
    }, 
    {
        "city": "Arcos de la Frontera", 
        "lat": "36.7483", 
        "lng": "-5.8063", 
        "country": "Spain", 
        "iso2": "ES", 
        "admin_name": "Andalusia", 
        "capital": "", 
        "population": "30700", 
        "population_proper": "30700"
    }, 
    {
        "city": "Puerto de la Cruz", 
        "lat": "28.4167", 
        "lng": "-16.5500", 
        "country": "Spain", 
        "iso2": "ES", 
        "admin_name": "Canary Islands", 
        "capital": "", 
        "population": "30468", 
        "population_proper": "30468"
    }, 
    {
        "city": "Mah\u00f3n", 
        "lat": "39.8894", 
        "lng": "4.2642", 
        "country": "Spain", 
        "iso2": "ES", 
        "admin_name": "Balearic Islands", 
        "capital": "", 
        "population": "29040", 
        "population_proper": "29040"
    }, 
    {
        "city": "\u00c9ibar", 
        "lat": "43.1843", 
        "lng": "-2.4733", 
        "country": "Spain", 
        "iso2": "ES", 
        "admin_name": "Basque Country", 
        "capital": "", 
        "population": "27522", 
        "population_proper": "27522"
    }, 
    {
        "city": "Villanueva de la Serena", 
        "lat": "38.9739", 
        "lng": "-5.8003", 
        "country": "Spain", 
        "iso2": "ES", 
        "admin_name": "Extremadura", 
        "capital": "", 
        "population": "25667", 
        "population_proper": "25667"
    }, 
    {
        "city": "Jumilla", 
        "lat": "38.4792", 
        "lng": "-1.3250", 
        "country": "Spain", 
        "iso2": "ES", 
        "admin_name": "Murcia", 
        "capital": "", 
        "population": "25600", 
        "population_proper": "25600"
    }, 
    {
        "city": "Villarrobledo", 
        "lat": "39.2667", 
        "lng": "-2.6000", 
        "country": "Spain", 
        "iso2": "ES", 
        "admin_name": "Castille-La Mancha", 
        "capital": "", 
        "population": "25184", 
        "population_proper": "25184"
    }, 
    {
        "city": "Almonte", 
        "lat": "37.2612", 
        "lng": "-6.5176", 
        "country": "Spain", 
        "iso2": "ES", 
        "admin_name": "Andalusia", 
        "capital": "", 
        "population": "24191", 
        "population_proper": "24191"
    }, 
    {
        "city": "Laguna de Duero", 
        "lat": "41.5831", 
        "lng": "-4.7167", 
        "country": "Spain", 
        "iso2": "ES", 
        "admin_name": "Castille-Leon", 
        "capital": "", 
        "population": "22725", 
        "population_proper": "22725"
    }, 
    {
        "city": "Torre del Mar", 
        "lat": "36.7500", 
        "lng": "-4.1000", 
        "country": "Spain", 
        "iso2": "ES", 
        "admin_name": "Andalusia", 
        "capital": "", 
        "population": "22168", 
        "population_proper": "22168"
    }, 
    {
        "city": "Moguer", 
        "lat": "37.2747", 
        "lng": "-6.8386", 
        "country": "Spain", 
        "iso2": "ES", 
        "admin_name": "Andalusia", 
        "capital": "", 
        "population": "22088", 
        "population_proper": "22088"
    }, 
    {
        "city": "Palafrugell", 
        "lat": "41.9174", 
        "lng": "3.1631", 
        "country": "Spain", 
        "iso2": "ES", 
        "admin_name": "Catalonia", 
        "capital": "", 
        "population": "21049", 
        "population_proper": "21049"
    }, 
    {
        "city": "Loja", 
        "lat": "37.1667", 
        "lng": "-4.1500", 
        "country": "Spain", 
        "iso2": "ES", 
        "admin_name": "Andalusia", 
        "capital": "", 
        "population": "20342", 
        "population_proper": "20342"
    }, 
    {
        "city": "Requena", 
        "lat": "39.4885", 
        "lng": "-1.1023", 
        "country": "Spain", 
        "iso2": "ES", 
        "admin_name": "Valencia", 
        "capital": "", 
        "population": "20254", 
        "population_proper": "20254"
    }, 
    {
        "city": "Guadix", 
        "lat": "37.2996", 
        "lng": "-3.1371", 
        "country": "Spain", 
        "iso2": "ES", 
        "admin_name": "Andalusia", 
        "capital": "", 
        "population": "18422", 
        "population_proper": "18422"
    }, 
    {
        "city": "Navalmoral de la Mata", 
        "lat": "39.8928", 
        "lng": "-5.5403", 
        "country": "Spain", 
        "iso2": "ES", 
        "admin_name": "Extremadura", 
        "capital": "", 
        "population": "17129", 
        "population_proper": "17129"
    }, 
    {
        "city": "Ejea de los Caballeros", 
        "lat": "42.1273", 
        "lng": "-1.1384", 
        "country": "Spain", 
        "iso2": "ES", 
        "admin_name": "Aragon", 
        "capital": "", 
        "population": "16783", 
        "population_proper": "16783"
    }, 
    {
        "city": "Azpeitia", 
        "lat": "43.1819", 
        "lng": "-2.2653", 
        "country": "Spain", 
        "iso2": "ES", 
        "admin_name": "Basque Country", 
        "capital": "", 
        "population": "14936", 
        "population_proper": "14936"
    }, 
    {
        "city": "Noya", 
        "lat": "42.7850", 
        "lng": "-8.8878", 
        "country": "Spain", 
        "iso2": "ES", 
        "admin_name": "Galicia", 
        "capital": "", 
        "population": "14263", 
        "population_proper": "14263"
    }, 
    {
        "city": "Cuevas del Almanzora", 
        "lat": "37.2969", 
        "lng": "-1.8797", 
        "country": "Spain", 
        "iso2": "ES", 
        "admin_name": "Andalusia", 
        "capital": "", 
        "population": "14081", 
        "population_proper": "14081"
    }, 
    {
        "city": "Socu\u00e9llamos", 
        "lat": "39.2933", 
        "lng": "-2.7942", 
        "country": "Spain", 
        "iso2": "ES", 
        "admin_name": "Castille-La Mancha", 
        "capital": "", 
        "population": "12139", 
        "population_proper": "12139"
    }, 
    {
        "city": "Olivenza", 
        "lat": "38.6857", 
        "lng": "-7.1007", 
        "country": "Spain", 
        "iso2": "ES", 
        "admin_name": "Extremadura", 
        "capital": "", 
        "population": "11963", 
        "population_proper": "11963"
    }, 
    {
        "city": "Palos de la Frontera", 
        "lat": "37.2278", 
        "lng": "-6.8932", 
        "country": "Spain", 
        "iso2": "ES", 
        "admin_name": "Andalusia", 
        "capital": "", 
        "population": "11289", 
        "population_proper": "11289"
    }, 
    {
        "city": "Santo\u00f1a", 
        "lat": "43.4414", 
        "lng": "-3.4575", 
        "country": "Spain", 
        "iso2": "ES", 
        "admin_name": "Cantabria", 
        "capital": "", 
        "population": "11024", 
        "population_proper": "11024"
    }, 
    {
        "city": "Tafalla", 
        "lat": "42.5289", 
        "lng": "-1.6736", 
        "country": "Spain", 
        "iso2": "ES", 
        "admin_name": "Navarre", 
        "capital": "", 
        "population": "10595", 
        "population_proper": "10595"
    }, 
    {
        "city": "La Ba\u00f1eza", 
        "lat": "42.2975", 
        "lng": "-5.9017", 
        "country": "Spain", 
        "iso2": "ES", 
        "admin_name": "Castille-Leon", 
        "capital": "", 
        "population": "10338", 
        "population_proper": "10338"
    }, 
    {
        "city": "Canteras", 
        "lat": "37.6121", 
        "lng": "-1.0437", 
        "country": "Spain", 
        "iso2": "ES", 
        "admin_name": "Murcia", 
        "capital": "", 
        "population": "10178", 
        "population_proper": "10178"
    }, 
    {
        "city": "Miajadas", 
        "lat": "39.1528", 
        "lng": "-5.9081", 
        "country": "Spain", 
        "iso2": "ES", 
        "admin_name": "Extremadura", 
        "capital": "", 
        "population": "9607", 
        "population_proper": "9607"
    }, 
    {
        "city": "Piedras Blancas", 
        "lat": "43.5600", 
        "lng": "-5.9760", 
        "country": "Spain", 
        "iso2": "ES", 
        "admin_name": "Asturias", 
        "capital": "", 
        "population": "9533", 
        "population_proper": "9533"
    }, 
    {
        "city": "Puigcerd\u00e1", 
        "lat": "42.4317", 
        "lng": "1.9283", 
        "country": "Spain", 
        "iso2": "ES", 
        "admin_name": "Catalonia", 
        "capital": "", 
        "population": "9258", 
        "population_proper": "9258"
    }, 
    {
        "city": "Valldoreix", 
        "lat": "41.4678", 
        "lng": "2.0647", 
        "country": "Spain", 
        "iso2": "ES", 
        "admin_name": "Catalonia", 
        "capital": "", 
        "population": "8401", 
        "population_proper": "8401"
    }, 
    {
        "city": "Corella", 
        "lat": "42.1147", 
        "lng": "-1.7867", 
        "country": "Spain", 
        "iso2": "ES", 
        "admin_name": "Navarre", 
        "capital": "", 
        "population": "7971", 
        "population_proper": "7971"
    }, 
    {
        "city": "Cintru\u00e9nigo", 
        "lat": "42.0800", 
        "lng": "-1.8050", 
        "country": "Spain", 
        "iso2": "ES", 
        "admin_name": "Navarre", 
        "capital": "", 
        "population": "7903", 
        "population_proper": "7903"
    }, 
    {
        "city": "Talayuela", 
        "lat": "39.9860", 
        "lng": "-5.6096", 
        "country": "Spain", 
        "iso2": "ES", 
        "admin_name": "Extremadura", 
        "capital": "", 
        "population": "7371", 
        "population_proper": "7371"
    }, 
    {
        "city": "Porto Cristo", 
        "lat": "39.5444", 
        "lng": "3.3375", 
        "country": "Spain", 
        "iso2": "ES", 
        "admin_name": "Balearic Islands", 
        "capital": "", 
        "population": "7355", 
        "population_proper": "7355"
    }, 
    {
        "city": "Moraleja", 
        "lat": "40.0695", 
        "lng": "-6.6572", 
        "country": "Spain", 
        "iso2": "ES", 
        "admin_name": "Extremadura", 
        "capital": "", 
        "population": "6750", 
        "population_proper": "6750"
    }, 
    {
        "city": "San Adri\u00e1n", 
        "lat": "42.3325", 
        "lng": "-1.9333", 
        "country": "Spain", 
        "iso2": "ES", 
        "admin_name": "Navarre", 
        "capital": "", 
        "population": "6292", 
        "population_proper": "6292"
    }, 
    {
        "city": "Arroyo de la Luz", 
        "lat": "39.4840", 
        "lng": "-6.5846", 
        "country": "Spain", 
        "iso2": "ES", 
        "admin_name": "Extremadura", 
        "capital": "", 
        "population": "5811", 
        "population_proper": "5811"
    }, 
    {
        "city": "Valencia de Alc\u00e1ntara", 
        "lat": "39.4133", 
        "lng": "-7.2436", 
        "country": "Spain", 
        "iso2": "ES", 
        "admin_name": "Extremadura", 
        "capital": "", 
        "population": "5397", 
        "population_proper": "5397"
    }, 
    {
        "city": "Mutriku", 
        "lat": "43.3072", 
        "lng": "-2.3850", 
        "country": "Spain", 
        "iso2": "ES", 
        "admin_name": "Basque Country", 
        "capital": "", 
        "population": "5333", 
        "population_proper": "5333"
    }, 
    {
        "city": "La Herradura", 
        "lat": "36.7350", 
        "lng": "-3.7372", 
        "country": "Spain", 
        "iso2": "ES", 
        "admin_name": "Andalusia", 
        "capital": "", 
        "population": "5133", 
        "population_proper": "5133"
    }, 
    {
        "city": "Garachico", 
        "lat": "28.3737", 
        "lng": "-16.7640", 
        "country": "Spain", 
        "iso2": "ES", 
        "admin_name": "Canary Islands", 
        "capital": "", 
        "population": "4871", 
        "population_proper": "4871"
    }, 
    {
        "city": "Lodosa", 
        "lat": "42.4242", 
        "lng": "-2.0783", 
        "country": "Spain", 
        "iso2": "ES", 
        "admin_name": "Navarre", 
        "capital": "", 
        "population": "4816", 
        "population_proper": "4816"
    }, 
    {
        "city": "Malpartida de Plasencia", 
        "lat": "39.9812", 
        "lng": "-6.0438", 
        "country": "Spain", 
        "iso2": "ES", 
        "admin_name": "Extremadura", 
        "capital": "", 
        "population": "4602", 
        "population_proper": "4602"
    }, 
    {
        "city": "Hornachuelos", 
        "lat": "37.8323", 
        "lng": "-5.2482", 
        "country": "Spain", 
        "iso2": "ES", 
        "admin_name": "Andalusia", 
        "capital": "", 
        "population": "4497", 
        "population_proper": "4497"
    }, 
    {
        "city": "Viana", 
        "lat": "42.5151", 
        "lng": "-2.3718", 
        "country": "Spain", 
        "iso2": "ES", 
        "admin_name": "Navarre", 
        "capital": "", 
        "population": "4209", 
        "population_proper": "4209"
    }, 
    {
        "city": "Herv\u00e1s", 
        "lat": "40.2739", 
        "lng": "-5.8658", 
        "country": "Spain", 
        "iso2": "ES", 
        "admin_name": "Extremadura", 
        "capital": "", 
        "population": "3976", 
        "population_proper": "3976"
    }, 
    {
        "city": "Olite", 
        "lat": "42.4875", 
        "lng": "-1.6625", 
        "country": "Spain", 
        "iso2": "ES", 
        "admin_name": "Navarre", 
        "capital": "", 
        "population": "3946", 
        "population_proper": "3946"
    }, 
    {
        "city": "Villargordo", 
        "lat": "37.9406", 
        "lng": "-3.7294", 
        "country": "Spain", 
        "iso2": "ES", 
        "admin_name": "Andalusia", 
        "capital": "", 
        "population": "3882", 
        "population_proper": "3882"
    }, 
    {
        "city": "Cascante", 
        "lat": "41.9992", 
        "lng": "-1.6789", 
        "country": "Spain", 
        "iso2": "ES", 
        "admin_name": "Navarre", 
        "capital": "", 
        "population": "3864", 
        "population_proper": "3864"
    }, 
    {
        "city": "Azagra", 
        "lat": "42.3139", 
        "lng": "-1.8972", 
        "country": "Spain", 
        "iso2": "ES", 
        "admin_name": "Navarre", 
        "capital": "", 
        "population": "3843", 
        "population_proper": "3843"
    }, 
    {
        "city": "Luarca", 
        "lat": "43.5448", 
        "lng": "-6.5327", 
        "country": "Spain", 
        "iso2": "ES", 
        "admin_name": "Asturias", 
        "capital": "", 
        "population": "3842", 
        "population_proper": "3842"
    }, 
    {
        "city": "Ribaforada", 
        "lat": "41.9972", 
        "lng": "-1.5108", 
        "country": "Spain", 
        "iso2": "ES", 
        "admin_name": "Navarre", 
        "capital": "", 
        "population": "3750", 
        "population_proper": "3750"
    }, 
    {
        "city": "Mendavia", 
        "lat": "42.4443", 
        "lng": "-2.2004", 
        "country": "Spain", 
        "iso2": "ES", 
        "admin_name": "Navarre", 
        "capital": "", 
        "population": "3547", 
        "population_proper": "3547"
    }, 
    {
        "city": "Viella", 
        "lat": "42.7023", 
        "lng": "0.7958", 
        "country": "Spain", 
        "iso2": "ES", 
        "admin_name": "Catalonia", 
        "capital": "", 
        "population": "3491", 
        "population_proper": "3491"
    }, 
    {
        "city": "San Francisco Javier", 
        "lat": "38.7056", 
        "lng": "1.4292", 
        "country": "Spain", 
        "iso2": "ES", 
        "admin_name": "Balearic Islands", 
        "capital": "", 
        "population": "3475", 
        "population_proper": "3475"
    }, 
    {
        "city": "Milagro", 
        "lat": "42.2417", 
        "lng": "-1.7628", 
        "country": "Spain", 
        "iso2": "ES", 
        "admin_name": "Navarre", 
        "capital": "", 
        "population": "3416", 
        "population_proper": "3416"
    }, 
    {
        "city": "Oza de los R\u00edos", 
        "lat": "43.2167", 
        "lng": "-8.1831", 
        "country": "Spain", 
        "iso2": "ES", 
        "admin_name": "Galicia", 
        "capital": "", 
        "population": "3204", 
        "population_proper": "3204"
    }, 
    {
        "city": "Cortes", 
        "lat": "41.9228", 
        "lng": "-1.4219", 
        "country": "Spain", 
        "iso2": "ES", 
        "admin_name": "Navarre", 
        "capital": "", 
        "population": "3151", 
        "population_proper": "3151"
    }, 
    {
        "city": "Estartit", 
        "lat": "42.0531", 
        "lng": "3.1994", 
        "country": "Spain", 
        "iso2": "ES", 
        "admin_name": "Catalonia", 
        "capital": "", 
        "population": "3025", 
        "population_proper": "3025"
    }, 
    {
        "city": "Leiza", 
        "lat": "43.0789", 
        "lng": "-1.9147", 
        "country": "Spain", 
        "iso2": "ES", 
        "admin_name": "Navarre", 
        "capital": "", 
        "population": "2913", 
        "population_proper": "2913"
    }, 
    {
        "city": "Marcilla", 
        "lat": "42.3278", 
        "lng": "-1.7375", 
        "country": "Spain", 
        "iso2": "ES", 
        "admin_name": "Navarre", 
        "capital": "", 
        "population": "2858", 
        "population_proper": "2858"
    }, 
    {
        "city": "Villafranca", 
        "lat": "42.2831", 
        "lng": "-1.7500", 
        "country": "Spain", 
        "iso2": "ES", 
        "admin_name": "Navarre", 
        "capital": "", 
        "population": "2847", 
        "population_proper": "2847"
    }, 
    {
        "city": "Puente la Reina", 
        "lat": "42.6717", 
        "lng": "-1.8155", 
        "country": "Spain", 
        "iso2": "ES", 
        "admin_name": "Navarre", 
        "capital": "", 
        "population": "2840", 
        "population_proper": "2840"
    }, 
    {
        "city": "Jarandilla de la Vera", 
        "lat": "40.1269", 
        "lng": "-5.6583", 
        "country": "Spain", 
        "iso2": "ES", 
        "admin_name": "Extremadura", 
        "capital": "", 
        "population": "2828", 
        "population_proper": "2828"
    }, 
    {
        "city": "Ribadesella", 
        "lat": "43.4615", 
        "lng": "-5.0592", 
        "country": "Spain", 
        "iso2": "ES", 
        "admin_name": "Asturias", 
        "capital": "", 
        "population": "2772", 
        "population_proper": "2772"
    }, 
    {
        "city": "Caparroso", 
        "lat": "42.3398", 
        "lng": "-1.6507", 
        "country": "Spain", 
        "iso2": "ES", 
        "admin_name": "Navarre", 
        "capital": "", 
        "population": "2766", 
        "population_proper": "2766"
    }, 
    {
        "city": "Vegadeo", 
        "lat": "43.4683", 
        "lng": "-7.0539", 
        "country": "Spain", 
        "iso2": "ES", 
        "admin_name": "Asturias", 
        "capital": "", 
        "population": "2725", 
        "population_proper": "2725"
    }, 
    {
        "city": "Losar de la Vera", 
        "lat": "40.1219", 
        "lng": "-5.6000", 
        "country": "Spain", 
        "iso2": "ES", 
        "admin_name": "Extremadura", 
        "capital": "", 
        "population": "2699", 
        "population_proper": "2699"
    }, 
    {
        "city": "Alcu\u00e9scar", 
        "lat": "39.1811", 
        "lng": "-6.2294", 
        "country": "Spain", 
        "iso2": "ES", 
        "admin_name": "Extremadura", 
        "capital": "", 
        "population": "2593", 
        "population_proper": "2593"
    }, 
    {
        "city": "Madro\u00f1era", 
        "lat": "39.4254", 
        "lng": "-5.7572", 
        "country": "Spain", 
        "iso2": "ES", 
        "admin_name": "Extremadura", 
        "capital": "", 
        "population": "2533", 
        "population_proper": "2533"
    }, 
    {
        "city": "Carcastillo", 
        "lat": "42.3800", 
        "lng": "-1.4444", 
        "country": "Spain", 
        "iso2": "ES", 
        "admin_name": "Navarre", 
        "capital": "", 
        "population": "2495", 
        "population_proper": "2495"
    }, 
    {
        "city": "Fusti\u00f1ana", 
        "lat": "42.0197", 
        "lng": "-1.4861", 
        "country": "Spain", 
        "iso2": "ES", 
        "admin_name": "Navarre", 
        "capital": "", 
        "population": "2490", 
        "population_proper": "2490"
    }, 
    {
        "city": "Echarri-Aranaz", 
        "lat": "42.9111", 
        "lng": "-2.0700", 
        "country": "Spain", 
        "iso2": "ES", 
        "admin_name": "Navarre", 
        "capital": "", 
        "population": "2483", 
        "population_proper": "2483"
    }, 
    {
        "city": "Ablitas", 
        "lat": "41.9736", 
        "lng": "-1.6386", 
        "country": "Spain", 
        "iso2": "ES", 
        "admin_name": "Navarre", 
        "capital": "", 
        "population": "2481", 
        "population_proper": "2481"
    }, 
    {
        "city": "Funes", 
        "lat": "42.3140", 
        "lng": "-1.8029", 
        "country": "Spain", 
        "iso2": "ES", 
        "admin_name": "Navarre", 
        "capital": "", 
        "population": "2440", 
        "population_proper": "2440"
    }, 
    {
        "city": "Valtierra", 
        "lat": "42.1953", 
        "lng": "-1.6342", 
        "country": "Spain", 
        "iso2": "ES", 
        "admin_name": "Navarre", 
        "capital": "", 
        "population": "2412", 
        "population_proper": "2412"
    }, 
    {
        "city": "Valverde del Fresno", 
        "lat": "40.2239", 
        "lng": "-6.8798", 
        "country": "Spain", 
        "iso2": "ES", 
        "admin_name": "Extremadura", 
        "capital": "", 
        "population": "2309", 
        "population_proper": "2309"
    }, 
    {
        "city": "Palencia", 
        "lat": "42.0095", 
        "lng": "-4.5241", 
        "country": "Spain", 
        "iso2": "ES", 
        "admin_name": "Castille-Leon", 
        "capital": "minor", 
        "population": "", 
        "population_proper": ""
    }, 
    {
        "city": "Lleida", 
        "lat": "41.6167", 
        "lng": "0.6222", 
        "country": "Spain", 
        "iso2": "ES", 
        "admin_name": "Catalonia", 
        "capital": "minor", 
        "population": "", 
        "population_proper": ""
    }, 
    {
        "city": "Segovia", 
        "lat": "40.9481", 
        "lng": "-4.1184", 
        "country": "Spain", 
        "iso2": "ES", 
        "admin_name": "Castille-Leon", 
        "capital": "minor", 
        "population": "", 
        "population_proper": ""
    }, 
    {
        "city": "Huesca", 
        "lat": "42.1484", 
        "lng": "-0.4125", 
        "country": "Spain", 
        "iso2": "ES", 
        "admin_name": "Aragon", 
        "capital": "minor", 
        "population": "", 
        "population_proper": ""
    }, 
    {
        "city": "Ciudad Real", 
        "lat": "38.9863", 
        "lng": "-3.9291", 
        "country": "Spain", 
        "iso2": "ES", 
        "admin_name": "Castille-La Mancha", 
        "capital": "minor", 
        "population": "", 
        "population_proper": ""
    }, 
    {
        "city": "Soria", 
        "lat": "41.7636", 
        "lng": "-2.4674", 
        "country": "Spain", 
        "iso2": "ES", 
        "admin_name": "Castille-Leon", 
        "capital": "minor", 
        "population": "", 
        "population_proper": ""
    }, 
    {
        "city": "Teruel", 
        "lat": "40.3456", 
        "lng": "-1.1065", 
        "country": "Spain", 
        "iso2": "ES", 
        "admin_name": "Aragon", 
        "capital": "minor", 
        "population": "", 
        "population_proper": ""
    }, 
    {
        "city": "Cuenca", 
        "lat": "40.0667", 
        "lng": "-2.1333", 
        "country": "Spain", 
        "iso2": "ES", 
        "admin_name": "Castille-La Mancha", 
        "capital": "minor", 
        "population": "", 
        "population_proper": ""
    }
]